Id,Time(seconds),Time(text),Latitude,Longitude,FlightMode,Altitude(feet),Altitude(meters),HSpeed(mph),HSpeed(m/s),GpsSpeed(mph),GpsSpeed(m/s),HomeDistance(feet),HomeDistance(meters),HomeLatitude,HomeLongitude,GpsCount,GpsLevel,BatteryPower(%),BatteryVoltage,BatteryVoltageDeviation,BatteryCell1Voltage,BatteryCell2Voltage,BatteryCell3Voltage,BatteryCell4Voltage,VelocityX,VelocityY,VelocityZ,Pitch,Roll,Yaw,Yaw(360),RcAileron,RcElevator,RcGyro,RcRudder,RcThrottle,NonGpsError,GoHomeStatus,AppTip,AppWarning,AppMessage
1,4.2,0m 4.2s,-26.91155643,-49.03376134,P-GPS,0.7,0.2,0.0,0.0,0.0,0.0,0.5,0.2,-26.91155751,-49.03376056,15,5,48,15.097,0.06,3.738,3.779,3.782,3.798,0,0,-0.2,0,-0.2,-75.3,284.7,1024,1024,1024,1024,1024,,,,,RTH Altitude: 30M
2,4.3,0m 4.3s,-26.91155634,-49.03376135,P-GPS,0.7,0.2,0.0,0.0,0.0,0.0,0.5,0.2,-26.91155751,-49.03376056,16,5,48,15.097,0.06,3.738,3.779,3.782,3.798,0,0,-0.1,0,-0.1,-75.2,284.8,1024,1024,1024,1024,1024,,,,,
3,4.4,0m 4.4s,-26.91155635,-49.03376136,P-GPS,0.7,0.2,0.0,0.0,1.1,0.5,0.6,0.2,-26.91155751,-49.03376056,16,5,48,15.097,0.06,3.738,3.779,3.782,3.798,0,0,-0.1,-0.1,0,-75.2,284.8,1024,1024,1024,1024,1091,,,,,
4,4.5,0m 4.5s,-26.91155627,-49.03376117,P-GPS,1.0,0.3,0.0,0.0,0.0,0.0,0.5,0.2,-26.91155751,-49.03376056,16,5,48,15.097,0.06,3.738,3.779,3.782,3.798,0,0,-0.1,0,0,-75.1,284.9,1024,1024,1024,1024,1110,,,,,
5,4.6,0m 4.6s,-26.91155626,-49.03376121,P-GPS,1.0,0.3,0.0,0.0,0.0,0.0,0.6,0.2,-26.91155751,-49.03376056,16,5,48,15.097,0.06,3.738,3.779,3.782,3.798,0,0,-0.1,0,0,-75,285,1024,1024,1024,1024,1197,,,,,
6,4.7,0m 4.7s,-26.91155616,-49.03376112,P-GPS,1.0,0.3,0.0,0.0,0.0,0.0,0.4,0.1,-26.91155751,-49.03376056,16,5,48,15.097,0.06,3.738,3.779,3.782,3.798,0,0,-0.1,0,0,-74.9,285.1,1024,1024,1024,1024,1338,,,,,
7,4.8,0m 4.8s,-26.91155616,-49.03376113,P-GPS,1.3,0.4,0.0,0.0,0.0,0.0,0.4,0.1,-26.91155751,-49.03376056,16,5,48,15.097,0.06,3.738,3.779,3.782,3.798,0,0,-0.1,0,-0.2,-74.8,285.2,1024,1024,1024,1024,1390,,,,,
8,4.9,0m 4.9s,-26.91155591,-49.03376108,P-GPS,1.3,0.4,0.0,0.0,0.0,0.0,0.6,0.2,-26.91155751,-49.03376056,16,5,48,15.097,0.06,3.738,3.779,3.782,3.798,0,0,-0.2,-0.2,-0.4,-74.8,285.2,1024,1024,1024,1024,1382,,,,,
9,5,0m 5s,-26.91155592,-49.03376109,P-GPS,1.3,0.4,0.0,0.0,0.0,0.0,0.5,0.2,-26.91155751,-49.03376056,16,5,48,15.097,0.06,3.738,3.779,3.782,3.798,0,0,-0.4,-0.2,-0.5,-74.9,285.1,1024,1024,1024,1024,1378,,,,,
10,5.1,0m 5.1s,-26.91155594,-49.03376112,P-GPS,1.6,0.5,0.0,0.0,0.0,0.0,0.6,0.2,-26.91155751,-49.03376056,16,5,48,15.097,0.06,3.738,3.779,3.782,3.798,0,0,-0.5,-0.3,-0.8,-74.9,285.1,1024,1024,1024,1024,1383,,,,,
11,5.2,0m 5.2s,-26.91155592,-49.03376111,P-GPS,1.6,0.5,0.0,0.0,0.0,0.0,0.5,0.2,-26.91155751,-49.03376056,16,5,48,15.045,0.018,3.752,3.767,3.756,3.77,0,0,-0.5,-0.3,-0.8,-74.8,285.2,1024,1024,1024,1024,1404,,,,,
12,5.4,0m 5.4s,-26.91155587,-49.03376119,P-GPS,2.0,0.6,0.0,0.0,0.0,0.0,0.7,0.2,-26.91155751,-49.03376056,16,5,48,15.045,0.018,3.752,3.767,3.756,3.77,0,0,-0.6,-0.2,-0.6,-74.7,285.3,1024,1024,1024,1024,1410,,,,,
13,5.5,0m 5.5s,-26.91155584,-49.03376119,P-GPS,2.3,0.7,0.0,0.0,0.0,0.0,0.8,0.2,-26.91155751,-49.03376056,15,5,48,15.045,0.018,3.752,3.767,3.756,3.77,0,0,-0.7,0,-0.6,-74.5,285.5,1024,1024,1024,1024,1425,,,,,
14,5.6,0m 5.6s,-26.91155586,-49.03376122,P-GPS,2.6,0.8,0.0,0.0,0.0,0.0,0.7,0.2,-26.91155751,-49.03376056,15,5,48,15.045,0.018,3.752,3.767,3.756,3.77,0,0,-0.8,0.2,-0.5,-74.5,285.5,1024,1024,1024,1024,1436,,,,,
15,5.7,0m 5.7s,-26.91155579,-49.03376124,P-GPS,3.0,0.9,0.0,0.0,0.0,0.0,0.7,0.2,-26.91155751,-49.03376056,16,5,48,15.045,0.018,3.752,3.767,3.756,3.77,0,0,-0.8,0.5,-0.5,-74.5,285.5,1024,1024,1024,1024,1447,,,,,
16,5.8,0m 5.8s,-26.9115558,-49.03376125,P-GPS,3.3,1.0,0.0,0.0,1.1,0.5,0.8,0.2,-26.91155751,-49.03376056,16,5,48,15.045,0.018,3.752,3.767,3.756,3.77,0,0,-0.9,0.7,-0.4,-74.5,285.5,1024,1024,1024,1022,1463,,,,,
17,5.9,0m 5.9s,-26.91155583,-49.03376136,P-GPS,3.6,1.1,0.0,0.0,0.0,0.0,0.8,0.2,-26.91155751,-49.03376056,16,5,48,15.045,0.018,3.752,3.767,3.756,3.77,0,0,-1,0.9,-0.4,-74.5,285.5,1024,1024,1024,1022,1476,,,,,
18,6,0m 6s,-26.91155586,-49.03376135,P-GPS,3.9,1.2,0.0,0.0,1.1,0.5,0.7,0.2,-26.91155751,-49.03376056,16,5,48,15.045,0.018,3.752,3.767,3.756,3.77,0,0,-1,1,-0.2,-74.6,285.4,1024,1024,1024,1023,1513,,,,,
19,6.1,0m 6.1s,-26.91155585,-49.03376148,P-GPS,4.3,1.3,0.0,0.0,0.0,0.0,0.7,0.2,-26.91155751,-49.03376056,17,5,48,15.045,0.018,3.752,3.767,3.756,3.77,0,0,-1,1.1,-0.1,-74.6,285.4,1024,1024,1024,1022,1581,,,,,
20,6.2,0m 6.2s,-26.91155587,-49.03376144,P-GPS,4.6,1.4,0.0,0.0,0.0,0.0,0.7,0.2,-26.91155751,-49.03376056,17,5,48,15.045,0.018,3.752,3.767,3.756,3.77,0,0,-1.1,1.1,0,-74.7,285.3,1024,1024,1024,1022,1668,,,,,
21,6.3,0m 6.3s,-26.9115561,-49.0337613,P-GPS,4.9,1.5,0.0,0.0,0.0,0.0,0.6,0.2,-26.91155751,-49.03376056,16,5,48,14.325,0.062,3.554,3.589,3.566,3.616,0,0,-1.3,1.2,-0.1,-74.7,285.3,1024,1024,1024,1023,1684,,,,,
22,6.4,0m 6.4s,-26.91155609,-49.03376126,P-GPS,5.6,1.7,0.0,0.0,0.0,0.0,0.6,0.2,-26.91155751,-49.03376056,16,5,48,14.325,0.062,3.554,3.589,3.566,3.616,0,0,-1.5,0.9,0,-74.7,285.3,1024,1024,1024,1024,1684,,,,,
23,6.5,0m 6.5s,-26.91155642,-49.03376111,P-GPS,5.9,1.8,0.2,0.1,0.0,0.0,0.4,0.1,-26.91155751,-49.03376056,17,5,48,14.325,0.062,3.554,3.589,3.566,3.616,-0.1,0,-1.7,0.7,0,-74.8,285.2,1024,1024,1024,1024,1684,,,,,
24,6.6,0m 6.6s,-26.91155644,-49.03376107,P-GPS,6.6,2.0,0.2,0.1,0.0,0.0,0.4,0.1,-26.91155751,-49.03376056,17,5,48,14.325,0.062,3.554,3.589,3.566,3.616,-0.1,0,-1.8,0.5,0.1,-74.9,285.1,1024,1024,1024,1024,1684,,,,,
25,6.7,0m 6.7s,-26.91155681,-49.03376086,P-GPS,7.2,2.2,0.0,0.0,1.1,0.5,0.3,0.1,-26.91155751,-49.03376056,17,5,48,14.325,0.062,3.554,3.589,3.566,3.616,0,0,-1.8,0.2,0.4,-75,285,1024,1024,1024,1024,1684,,,,,
26,6.8,0m 6.8s,-26.91155681,-49.03376083,P-GPS,7.9,2.4,0.0,0.0,1.1,0.5,0.3,0.1,-26.91155751,-49.03376056,17,5,48,14.325,0.062,3.554,3.589,3.566,3.616,0,0,-1.9,0.3,0.6,-75.2,284.8,1024,1024,1024,1043,1684,,,,,
27,6.9,0m 6.9s,-26.91155722,-49.03376051,P-GPS,8.5,2.6,0.2,0.1,0.0,0.0,0.0,0.0,-26.91155751,-49.03376056,17,5,48,14.325,0.062,3.554,3.589,3.566,3.616,-0.1,0,-1.9,0.4,0.6,-75.3,284.7,1024,1024,1024,1071,1684,,,,,
28,7,0m 7s,-26.91155735,-49.03376047,P-GPS,9.2,2.8,0.2,0.1,0.0,0.0,0.0,0.0,-26.91155751,-49.03376056,17,5,48,14.325,0.062,3.554,3.589,3.566,3.616,-0.1,0,-2,0.1,0.6,-75.5,284.5,1024,1024,1024,1063,1684,,,,,
29,7.1,0m 7.1s,-26.91155761,-49.03376016,P-GPS,9.8,3.0,0.2,0.1,0.0,0.0,0.0,0.0,-26.91155751,-49.03376056,16,5,48,14.325,0.062,3.554,3.589,3.566,3.616,-0.1,0,-1.9,-0.1,0.6,-75.6,284.4,1024,1024,1024,1048,1684,,,,,
30,7.2,0m 7.2s,-26.9115577,-49.0337601,P-GPS,10.5,3.2,0.0,0.0,1.1,0.5,0.0,0.0,-26.91155751,-49.03376056,16,5,48,14.325,0.062,3.554,3.589,3.566,3.616,0,0,-1.9,-0.6,0.7,-75.8,284.2,1024,1024,1024,1060,1684,,,,,
31,7.3,0m 7.3s,-26.91155782,-49.03375987,P-GPS,11.2,3.4,0.0,0.0,0.0,0.0,0.0,0.0,-26.91155751,-49.03376056,17,5,48,13.96,0.097,3.454,3.488,3.467,3.551,0,0,-1.9,-1,0.9,-75.9,284.1,1024,1024,1024,1051,1684,,,,,
32,7.4,0m 7.4s,-26.91155786,-49.0337598,P-GPS,11.8,3.6,0.0,0.0,0.0,0.0,0.3,0.1,-26.91155751,-49.03376056,17,5,48,13.96,0.097,3.454,3.488,3.467,3.551,0,0,-1.9,-1.3,1.2,-76.1,283.9,1024,1024,1024,1049,1684,,,,,
33,7.5,0m 7.5s,-26.91155791,-49.03375946,P-GPS,12.5,3.8,0.0,0.0,0.0,0.0,0.4,0.1,-26.91155751,-49.03376056,17,5,48,13.96,0.097,3.454,3.488,3.467,3.551,0,0,-1.9,-1.6,1.2,-76.1,283.9,1024,1024,1024,1044,1684,,,,,
34,7.6,0m 7.6s,-26.91155791,-49.0337594,P-GPS,13.1,4.0,0.0,0.0,1.1,0.5,0.4,0.1,-26.91155751,-49.03376056,17,5,48,13.96,0.097,3.454,3.488,3.467,3.551,0,0,-1.9,-2,0.8,-76,284,1024,1024,1024,1043,1684,,,,,
35,7.7,0m 7.7s,-26.91155781,-49.03375921,P-GPS,13.8,4.2,0.0,0.0,0.0,0.0,0.4,0.1,-26.91155751,-49.03376056,17,5,48,13.96,0.097,3.454,3.488,3.467,3.551,0,0,-1.9,-2.2,0.3,-75.8,284.2,1024,1024,1024,1051,1684,,,,,
36,7.8,0m 7.8s,-26.91155775,-49.03375927,P-GPS,14.4,4.4,0.0,0.0,0.0,0.0,0.4,0.1,-26.91155751,-49.03376056,17,5,48,13.96,0.097,3.454,3.488,3.467,3.551,0,0,-1.9,-2.1,-0.1,-75.5,284.5,1024,1024,1024,1048,1684,,,,,
37,7.9,0m 7.9s,-26.91155781,-49.03375904,P-GPS,15.1,4.6,0.0,0.0,0.0,0.0,0.4,0.1,-26.91155751,-49.03376056,17,5,48,13.96,0.097,3.454,3.488,3.467,3.551,0,0,-1.9,-2,-0.4,-75.3,284.7,1024,1024,1024,1024,1684,,,,,
38,8,0m 8s,-26.91155781,-49.03375905,P-GPS,15.7,4.8,0.0,0.0,0.0,0.0,0.4,0.1,-26.91155751,-49.03376056,17,5,48,13.96,0.097,3.454,3.488,3.467,3.551,0,0,-1.9,-1.8,-0.4,-75.2,284.8,1024,1024,1024,1034,1684,,,,,
39,8.1,0m 8.1s,-26.91155762,-49.03375902,P-GPS,16.4,5.0,0.0,0.0,0.0,0.0,0.4,0.1,-26.91155751,-49.03376056,17,5,48,13.96,0.097,3.454,3.488,3.467,3.551,0,0,-1.9,-1.5,-0.2,-75.2,284.8,1024,1024,1024,1079,1684,,,,,
40,8.2,0m 8.2s,-26.91155763,-49.03375908,P-GPS,17.1,5.2,0.0,0.0,0.0,0.0,0.4,0.1,-26.91155751,-49.03376056,17,5,48,13.96,0.097,3.454,3.488,3.467,3.551,0,0,-1.9,-1.2,0,-75.3,284.7,1024,1024,1024,1079,1684,,,,,
41,8.3,0m 8.3s,-26.91155745,-49.03375901,P-GPS,17.7,5.4,0.0,0.0,0.0,0.0,0.4,0.1,-26.91155751,-49.03376056,17,5,48,13.856,0.091,3.427,3.466,3.445,3.518,0,0,-1.9,-1.1,0,-75,285,1024,1024,1024,1090,1684,,,,,
42,8.4,0m 8.4s,-26.91155746,-49.03375904,P-GPS,18.4,5.6,0.0,0.0,0.0,0.0,0.4,0.1,-26.91155751,-49.03376056,17,5,48,13.856,0.091,3.427,3.466,3.445,3.518,0,0,-1.9,-1,0,-74.7,285.3,1024,1024,1024,1071,1684,,,,,
43,8.6,0m 8.6s,-26.91155717,-49.033759,P-GPS,19.7,6.0,0.0,0.0,0.0,0.0,0.4,0.1,-26.91155751,-49.03376056,17,5,48,13.856,0.091,3.427,3.466,3.445,3.518,0,0,-1.9,-1.1,-0.1,-74.3,285.7,1024,1024,1024,1060,1684,,,,,
44,8.7,0m 8.7s,-26.91155697,-49.03375892,P-GPS,20.3,6.2,0.0,0.0,0.0,0.0,0.5,0.2,-26.91155751,-49.03376056,17,5,48,13.856,0.091,3.427,3.466,3.445,3.518,0,0,-1.9,-1.1,-0.3,-74.2,285.8,1024,1024,1024,1048,1684,,,,,
45,8.9,0m 8.9s,-26.91155668,-49.03375904,P-GPS,21.7,6.6,0.2,0.1,0.0,0.0,0.5,0.2,-26.91155751,-49.03376056,17,5,48,13.856,0.091,3.427,3.466,3.445,3.518,0.1,0,-1.9,-1.3,-0.7,-74.1,285.9,1024,1024,1024,1029,1684,,,,,
46,9,0m 9s,-26.91155659,-49.03375911,P-GPS,22.3,6.8,0.0,0.0,0.0,0.0,0.5,0.2,-26.91155751,-49.03376056,17,5,48,13.856,0.091,3.427,3.466,3.445,3.518,0,0,-1.9,-1.5,-0.9,-74.1,285.9,1024,1024,1024,1024,1684,,,,,
47,9.1,0m 9.1s,-26.91155651,-49.03375908,P-GPS,23.0,7.0,0.0,0.0,0.0,0.0,0.6,0.2,-26.91155751,-49.03376056,17,5,48,13.856,0.091,3.427,3.466,3.445,3.518,0,0,-1.9,-1.4,-1.1,-74,286,1024,1024,1024,1024,1684,,,,,
48,9.2,0m 9.2s,-26.91155636,-49.0337592,P-GPS,23.6,7.2,0.2,0.1,0.0,0.0,0.6,0.2,-26.91155751,-49.03376056,17,5,48,13.856,0.091,3.427,3.466,3.445,3.518,0,-0.1,-1.9,-1.2,-1.1,-73.9,286.1,1024,1024,1024,1024,1684,,,,,
49,9.3,0m 9.3s,-26.9115563,-49.03375939,P-GPS,24.6,7.5,0.2,0.1,1.1,0.5,0.6,0.2,-26.91155751,-49.03376056,17,5,48,13.856,0.091,3.427,3.466,3.445,3.518,0,-0.1,-2,-0.9,-1.2,-73.8,286.2,1024,1024,1024,1024,1684,,,,,
50,9.4,0m 9.4s,-26.91155623,-49.03375953,P-GPS,24.9,7.6,0.2,0.1,0.0,0.0,0.5,0.2,-26.91155751,-49.03376056,17,5,48,13.856,0.091,3.427,3.466,3.445,3.518,0,-0.1,-1.9,-0.5,-1.4,-73.8,286.2,1024,1024,1024,1024,1684,,,,,
51,9.5,0m 9.5s,-26.91155613,-49.03375957,P-GPS,25.6,7.8,0.2,0.1,1.1,0.5,0.6,0.2,-26.91155751,-49.03376056,17,5,48,13.936,0.105,3.441,3.486,3.463,3.546,0,-0.1,-1.9,-0.2,-1.4,-73.8,286.2,1024,1024,1024,1024,1684,,,,,
52,9.6,0m 9.6s,-26.91155611,-49.03375971,P-GPS,26.2,8.0,0.2,0.1,0.0,0.0,0.6,0.2,-26.91155751,-49.03376056,17,5,48,13.936,0.105,3.441,3.486,3.463,3.546,0,-0.1,-2,-0.1,-1,-73.8,286.2,1024,1024,1024,1024,1684,,,,,
53,9.7,0m 9.7s,-26.91155605,-49.03375967,P-GPS,26.9,8.2,0.2,0.1,0.0,0.0,0.6,0.2,-26.91155751,-49.03376056,17,5,48,13.936,0.105,3.441,3.486,3.463,3.546,0,-0.1,-2,0,-0.6,-73.8,286.2,1024,1024,1024,1024,1684,,,,,
54,9.8,0m 9.8s,-26.91155596,-49.03375977,P-GPS,27.9,8.5,0.0,0.0,0.0,0.0,0.7,0.2,-26.91155751,-49.03376056,17,5,48,13.936,0.105,3.441,3.486,3.463,3.546,0,0,-2,0,-0.3,-73.9,286.1,1024,1024,1024,1024,1684,,,,,
55,9.9,0m 9.9s,-26.91155599,-49.03375993,P-GPS,28.5,8.7,0.0,0.0,0.0,0.0,0.7,0.2,-26.91155751,-49.03376056,17,5,48,13.936,0.105,3.441,3.486,3.463,3.546,0,0,-2,0,-0.3,-73.9,286.1,1024,1024,1024,1024,1684,,,,,
56,10,0m 10s,-26.91155594,-49.03376001,P-GPS,29.2,8.9,0.0,0.0,0.0,0.0,0.6,0.2,-26.91155751,-49.03376056,17,5,48,13.936,0.105,3.441,3.486,3.463,3.546,0,0,-2,0,-0.4,-73.9,286.1,1024,1024,1024,1024,1684,,,,,
57,10.1,0m 10.1s,-26.9115557,-49.03376002,P-GPS,29.9,9.1,0.0,0.0,0.0,0.0,0.6,0.2,-26.91155751,-49.03376056,17,5,48,13.936,0.105,3.441,3.486,3.463,3.546,0,0,-2,0,-0.5,-73.9,286.1,1024,1024,1024,1022,1681,,,,,
58,10.2,0m 10.2s,-26.91155565,-49.03376007,P-GPS,30.5,9.3,0.0,0.0,1.1,0.5,0.7,0.2,-26.91155751,-49.03376056,17,5,48,13.936,0.105,3.441,3.486,3.463,3.546,0,0,-2,0,-0.7,-74,286,1024,1024,1024,1112,1305,,,,,
59,10.3,0m 10.3s,-26.91155561,-49.03376009,P-GPS,31.2,9.5,0.0,0.0,1.1,0.5,0.8,0.2,-26.91155751,-49.03376056,17,5,48,13.936,0.105,3.441,3.486,3.463,3.546,0,0,-1.9,-0.2,-0.9,-74,286,1024,1024,1024,1024,1091,,,,,
60,10.4,0m 10.4s,-26.91155554,-49.03376016,P-GPS,31.5,9.6,0.0,0.0,1.1,0.5,0.7,0.2,-26.91155751,-49.03376056,17,5,48,13.936,0.105,3.441,3.486,3.463,3.546,0,0,-1.5,-0.4,-1.4,-73.7,286.3,1024,1024,1024,1024,1024,,,,,
61,10.5,0m 10.5s,-26.91155549,-49.03376015,P-GPS,32.2,9.8,0.0,0.0,0.0,0.0,0.8,0.2,-26.91155751,-49.03376056,17,5,48,13.927,0.1,3.44,3.485,3.462,3.54,0,0,-1.1,-0.9,-1.9,-73.6,286.4,1024,1024,1024,1024,1024,,,,,
62,10.6,0m 10.6s,-26.91155549,-49.03376014,P-GPS,32.2,9.8,0.0,0.0,0.0,0.0,0.8,0.2,-26.91155751,-49.03376056,17,5,48,13.927,0.1,3.44,3.485,3.462,3.54,0,0,-0.7,-1,-2.2,-73.5,286.5,1024,1024,1024,1024,1024,,,,,
63,10.7,0m 10.7s,-26.91155544,-49.03376011,P-GPS,32.5,9.9,0.0,0.0,0.0,0.0,0.8,0.2,-26.91155751,-49.03376056,17,5,48,13.927,0.1,3.44,3.485,3.462,3.54,0,0,-0.5,-1.1,-2.4,-73.5,286.5,1024,1024,1024,1024,1024,,,,,
64,10.8,0m 10.8s,-26.91155543,-49.03376016,P-GPS,32.5,9.9,0.0,0.0,0.0,0.0,0.8,0.2,-26.91155751,-49.03376056,17,5,48,13.927,0.1,3.44,3.485,3.462,3.54,0,0,-0.3,-0.9,-2.4,-73.6,286.4,1024,1024,1024,1024,1024,,,,,
65,10.9,0m 10.9s,-26.91155539,-49.03376019,P-GPS,32.8,10.0,0.0,0.0,0.0,0.0,0.8,0.3,-26.91155751,-49.03376056,17,5,48,13.927,0.1,3.44,3.485,3.462,3.54,0,0,-0.3,-0.7,-2.4,-73.7,286.3,1024,1024,1024,1011,1024,,,,,
66,11,0m 11s,-26.91155546,-49.03376022,P-GPS,32.8,10.0,0.0,0.0,0.0,0.0,0.7,0.2,-26.91155751,-49.03376056,17,5,48,13.927,0.1,3.44,3.485,3.462,3.54,0,0,-0.2,-0.5,-2.4,-73.7,286.3,1024,1024,1024,1022,1024,,,,,
67,11.1,0m 11.1s,-26.91155547,-49.0337602,P-GPS,32.8,10.0,0.0,0.0,0.0,0.0,0.8,0.2,-26.91155751,-49.03376056,17,5,48,13.927,0.1,3.44,3.485,3.462,3.54,0,0,-0.1,-0.4,-2.4,-73.6,286.4,1024,1024,1024,1022,1024,,,,,
68,11.2,0m 11.2s,-26.91155555,-49.03376023,P-GPS,32.8,10.0,0.0,0.0,0.0,0.0,0.7,0.2,-26.91155751,-49.03376056,17,5,48,13.927,0.1,3.44,3.485,3.462,3.54,0,0,0,-0.5,-2.4,-73.5,286.5,1024,1024,1024,1020,1113,,,,,
69,11.3,0m 11.3s,-26.91155563,-49.03376026,P-GPS,32.8,10.0,0.0,0.0,0.0,0.0,0.6,0.2,-26.91155751,-49.03376056,17,5,48,13.927,0.1,3.44,3.485,3.462,3.54,0,0,-0.1,-0.6,-2.3,-73.4,286.6,1024,1024,1024,1022,1165,,,,,
70,11.4,0m 11.4s,-26.91155558,-49.03376018,P-GPS,32.8,10.0,0.0,0.0,0.0,0.0,0.8,0.2,-26.91155751,-49.03376056,17,5,48,13.927,0.1,3.44,3.485,3.462,3.54,0,0,0,-0.7,-2.2,-73.5,286.5,1024,1024,1024,1020,1206,,,,,
71,11.5,0m 11.5s,-26.91155577,-49.03376031,P-GPS,32.8,10.0,0.2,0.1,0.0,0.0,0.7,0.2,-26.91155751,-49.03376056,17,5,48,13.933,0.151,3.429,3.47,3.454,3.58,-0.1,0,0,-0.7,-1.9,-73.6,286.4,1024,1024,1024,972,1319,,,,,
72,11.6,0m 11.6s,-26.91155587,-49.03376032,P-GPS,32.8,10.0,0.2,0.1,0.0,0.0,0.6,0.2,-26.91155751,-49.03376056,17,5,48,13.933,0.151,3.429,3.47,3.454,3.58,-0.1,0,-0.2,-0.7,-1.3,-73.8,286.2,1024,1024,1024,972,1319,,,,,
73,11.8,0m 11.8s,-26.91155628,-49.03376048,P-GPS,33.1,10.1,0.2,0.1,0.0,0.0,0.5,0.2,-26.91155751,-49.03376056,17,5,48,13.933,0.151,3.429,3.47,3.454,3.58,-0.1,0,-0.4,-0.7,-0.1,-74.8,285.2,1024,1024,1024,888,1480,,,,,
74,12,0m 12s,-26.91155682,-49.0337606,P-GPS,33.8,10.3,0.2,0.1,1.1,0.5,0.0,0.0,-26.91155751,-49.03376056,17,5,48,13.933,0.151,3.429,3.47,3.454,3.58,-0.1,0,-1,-0.6,1,-77.5,282.5,1024,1024,1024,895,1641,,,,,
75,12.1,0m 12.1s,-26.91155709,-49.03376059,P-GPS,34.1,10.4,0.2,0.1,0.7,0.3,0.3,0.1,-26.91155751,-49.03376056,17,5,48,13.933,0.151,3.429,3.47,3.454,3.58,-0.1,0,-1.2,-0.7,1.3,-78.7,281.3,1024,1024,1024,927,1660,,,,,
76,12.2,0m 12.2s,-26.91155725,-49.03376063,P-GPS,34.4,10.5,0.2,0.1,0.0,0.0,0.3,0.1,-26.91155751,-49.03376056,17,5,48,13.933,0.151,3.429,3.47,3.454,3.58,-0.1,0,-1.3,-0.8,1.7,-79.6,280.4,1024,1024,1024,936,1662,,,,,
77,12.3,0m 12.3s,-26.91155732,-49.03376079,P-GPS,35.1,10.7,0.2,0.1,0.0,0.0,0.0,0.0,-26.91155751,-49.03376056,17,5,48,13.933,0.151,3.429,3.47,3.454,3.58,-0.1,0,-1.5,-0.9,2.2,-80.4,279.6,1024,1024,1024,940,1665,,,,,
78,12.4,0m 12.4s,-26.91155741,-49.03376085,P-GPS,35.4,10.8,0.0,0.0,0.0,0.0,0.0,0.0,-26.91155751,-49.03376056,17,5,48,13.933,0.151,3.429,3.47,3.454,3.58,0,0,-1.7,-1.1,2,-81,279,1024,1024,1024,947,1664,,,,,
79,12.5,0m 12.5s,-26.91155763,-49.03376085,P-GPS,36.1,11.0,0.0,0.0,0.0,0.0,0.0,0.0,-26.91155751,-49.03376056,17,5,48,13.933,0.151,3.429,3.47,3.454,3.58,0,0,-1.7,-1.1,1.7,-81.4,278.6,1024,1024,1024,1034,1509,,,,,
80,12.7,0m 12.7s,-26.91155766,-49.03376105,P-GPS,37.1,11.3,0.0,0.0,0.0,0.0,0.0,0.0,-26.91155751,-49.03376056,17,5,48,14.083,0.102,3.482,3.52,3.497,3.584,0,0,-1.4,-1,1,-80.6,279.4,1024,1024,1024,1024,1024,,,,,
81,12.8,0m 12.8s,-26.91155768,-49.03376114,P-GPS,37.4,11.4,0.0,0.0,0.0,0.0,0.0,0.0,-26.91155751,-49.03376056,17,5,48,14.083,0.102,3.482,3.52,3.497,3.584,0,0,-1,-0.9,0.9,-80.2,279.8,1024,1024,1024,992,1024,,,,,
82,12.9,0m 12.9s,-26.9115577,-49.03376122,P-GPS,37.7,11.5,0.2,0.1,0.0,0.0,0.3,0.1,-26.91155751,-49.03376056,17,5,48,14.083,0.102,3.482,3.52,3.497,3.584,0,-0.1,-0.6,-0.9,1,-79.9,280.1,1024,1023,1024,972,1024,,,,,
83,13,0m 13s,-26.91155771,-49.03376133,P-GPS,38.1,11.6,0.2,0.1,0.0,0.0,0.4,0.1,-26.91155751,-49.03376056,17,5,48,14.083,0.102,3.482,3.52,3.497,3.584,0,-0.1,-0.4,-0.7,1.1,-80,280,568,839,1024,1024,1024,,,,,
84,13.1,0m 13.1s,-26.91155762,-49.03376119,P-GPS,38.1,11.6,0.0,0.0,0.0,0.0,0.3,0.1,-26.91155751,-49.03376056,17,5,48,14.083,0.102,3.482,3.52,3.497,3.584,0,0,-0.2,0,-0.6,-80,280,365,758,1024,1024,1024,,,,,
85,13.2,0m 13.2s,-26.91155772,-49.03376123,P-GPS,38.1,11.6,0.2,0.1,0.0,0.0,0.3,0.1,-26.91155751,-49.03376056,17,5,48,14.083,0.102,3.482,3.52,3.497,3.584,-0.1,0,-0.1,2.6,-12.1,-80.3,279.7,364,808,1024,1024,1024,,,,,
86,13.3,0m 13.3s,-26.91155798,-49.0337612,P-GPS,38.1,11.6,0.7,0.3,0.0,0.0,0.4,0.1,-26.91155751,-49.03376056,17,5,48,14.083,0.102,3.482,3.52,3.497,3.584,-0.3,0,-0.1,4.3,-20.2,-80.8,279.2,380,829,1024,1024,1024,,,,,
87,13.4,0m 13.4s,-26.9115585,-49.03376116,P-GPS,38.4,11.7,1.6,0.7,0.0,0.0,0.4,0.1,-26.91155751,-49.03376056,17,5,48,14.083,0.102,3.482,3.52,3.497,3.584,-0.7,0,-0.1,4.4,-22.6,-80.9,279.1,367,809,1024,1024,1024,,,,,
88,13.5,0m 13.5s,-26.91155909,-49.03376111,P-GPS,38.4,11.7,2.2,1.0,1.5,0.7,0.6,0.2,-26.91155751,-49.03376056,17,5,48,14.083,0.102,3.482,3.52,3.497,3.584,-1,0,0,3.8,-22.6,-80.7,279.3,378,817,1024,1024,1024,,,,,
89,13.6,0m 13.6s,-26.91156019,-49.03376109,P-GPS,38.4,11.7,3.1,1.4,2.1,0.9,1.0,0.3,-26.91155751,-49.03376056,17,5,48,13.697,0.122,3.373,3.425,3.404,3.495,-1.4,0,0,3.5,-22.4,-80.6,279.4,378,815,1024,1024,1024,,,,,
90,13.7,0m 13.7s,-26.91156185,-49.03376092,P-GPS,38.4,11.7,3.6,1.6,3.4,1.5,1.6,0.5,-26.91155751,-49.03376056,17,5,48,13.697,0.122,3.373,3.425,3.404,3.495,-1.6,0,-0.1,3.4,-21.9,-80.5,279.5,421,844,1024,1024,1024,,,,,
91,13.8,0m 13.8s,-26.91156352,-49.03376088,P-GPS,38.4,11.7,4.3,1.9,4.2,1.9,2.2,0.7,-26.91155751,-49.03376056,17,5,48,13.697,0.122,3.373,3.425,3.404,3.495,-1.9,0,-0.1,3.5,-21.5,-80.4,279.6,449,870,1024,1024,1024,,,,,
92,13.9,0m 13.9s,-26.91156552,-49.03376064,P-GPS,38.4,11.7,4.9,2.2,4.6,2.1,2.9,0.9,-26.91155751,-49.03376056,17,5,48,13.697,0.122,3.373,3.425,3.404,3.495,-2.2,0,0,3.3,-20.7,-80.2,279.8,521,930,1024,1024,1024,,,,,
93,14,0m 14s,-26.91156769,-49.03376056,P-GPS,38.4,11.7,5.6,2.5,5.2,2.3,3.7,1.1,-26.91155751,-49.03376056,17,5,48,13.697,0.122,3.373,3.425,3.404,3.495,-2.5,0,0,3.1,-19.8,-79.8,280.2,521,930,1024,1024,1024,,,,,
94,14.1,0m 14.1s,-26.91157058,-49.03376043,P-GPS,38.4,11.7,6.0,2.7,6.3,2.8,4.8,1.5,-26.91155751,-49.03376056,17,5,48,13.697,0.122,3.373,3.425,3.404,3.495,-2.7,0,0,2,-17.8,-79.3,280.7,637,1018,1024,1024,1024,,,,,
95,14.2,0m 14.2s,-26.91157281,-49.03376026,P-GPS,38.4,11.7,6.5,2.9,6.4,2.8,5.6,1.7,-26.91155751,-49.03376056,17,5,48,13.697,0.122,3.373,3.425,3.404,3.495,-2.9,0,0,0.3,-14.7,-78.9,281.1,709,1024,1024,1024,1024,,,,,
96,14.3,0m 14.3s,-26.91157623,-49.03376009,P-GPS,38.4,11.7,6.7,3.0,7.0,3.1,6.8,2.1,-26.91155751,-49.03376056,17,5,48,13.697,0.122,3.373,3.425,3.404,3.495,-3,0,0,-0.7,-12.2,-78.9,281.1,871,1072,1024,1024,1024,,,,,
97,14.4,0m 14.4s,-26.91157905,-49.03376005,P-GPS,38.4,11.7,6.9,3.1,7.8,3.5,7.9,2.4,-26.91155751,-49.03376056,17,5,48,13.697,0.122,3.373,3.425,3.404,3.495,-3.1,0,0,-1.2,-8,-79.2,280.8,848,1045,1024,1024,1024,,,,,
98,14.5,0m 14.5s,-26.91158222,-49.03375985,P-GPS,38.4,11.7,6.9,3.1,7.4,3.3,9.0,2.7,-26.91155751,-49.03376056,17,5,48,13.697,0.122,3.373,3.425,3.404,3.495,-3.1,0,0,-1.6,-4.2,-79.5,280.5,801,1024,1024,1024,1024,,,,,
99,14.6,0m 14.6s,-26.91158508,-49.03375983,P-GPS,38.4,11.7,6.9,3.1,7.5,3.4,10.1,3.1,-26.91155751,-49.03376056,17,5,48,14.048,0.089,3.473,3.517,3.496,3.562,-3.1,0,0,-2,-2.4,-79.7,280.3,864,1024,1024,1024,1024,,,,,
100,14.7,0m 14.7s,-26.91158852,-49.03375982,P-GPS,38.7,11.8,6.9,3.1,7.8,3.5,11.3,3.4,-26.91155751,-49.03376056,17,5,48,14.048,0.089,3.473,3.517,3.496,3.562,-3.1,0,0,-2.4,-2.2,-79.8,280.2,1005,1024,1024,1024,1030,,,,,
101,14.8,0m 14.8s,-26.91159141,-49.03375973,P-GPS,38.7,11.8,6.7,3.0,7.9,3.6,12.4,3.8,-26.91155751,-49.03376056,17,5,48,14.048,0.089,3.473,3.517,3.496,3.562,-3,0,0,-2.6,-1.4,-79.5,280.5,1024,1024,1024,1024,1077,,,,,
102,14.9,0m 14.9s,-26.91159455,-49.0337597,P-GPS,38.7,11.8,6.7,3.0,7.5,3.4,13.5,4.1,-26.91155751,-49.03376056,17,5,48,14.048,0.089,3.473,3.517,3.496,3.562,-3,0,0,-2.6,1.1,-79.2,280.8,1024,1024,1024,1024,1081,,,,,
103,15,0m 15s,-26.91159727,-49.03375981,P-GPS,38.7,11.8,6.5,2.9,7.4,3.3,14.5,4.4,-26.91155751,-49.03376056,17,5,48,14.048,0.089,3.473,3.517,3.496,3.562,-2.9,-0.1,0,-3,3.7,-79.2,280.8,1078,1120,1024,1024,1051,,,,,
104,15.2,0m 15.2s,-26.91160295,-49.03376004,P-GPS,38.7,11.8,5.8,2.6,7.0,3.1,16.6,5.1,-26.91155751,-49.03376056,17,5,48,14.048,0.089,3.473,3.517,3.496,3.562,-2.6,-0.1,0,-4.1,8.4,-79.2,280.8,1026,1184,1024,1024,1043,,,,,
105,15.3,0m 15.3s,-26.91160544,-49.03376042,P-GPS,38.7,11.8,5.6,2.5,6.8,3.0,17.5,5.3,-26.91155751,-49.03376056,17,5,48,14.048,0.089,3.473,3.517,3.496,3.562,-2.5,-0.2,0,-5.3,5.2,-79.2,280.8,1024,1211,1024,1024,1024,,,,,
106,15.4,0m 15.4s,-26.91160801,-49.03376066,P-GPS,38.7,11.8,5.2,2.3,6.4,2.8,18.4,5.6,-26.91155751,-49.03376056,17,5,48,14.048,0.089,3.473,3.517,3.496,3.562,-2.3,-0.3,0,-6.4,3.3,-79.3,280.7,1029,1210,1024,1024,1024,,,,,
107,15.5,0m 15.5s,-26.91160997,-49.03376114,P-GPS,38.7,11.8,5.0,2.2,5.7,2.6,19.1,5.8,-26.91155751,-49.03376056,17,5,48,14.048,0.089,3.473,3.517,3.496,3.562,-2.2,-0.4,0,-7,3.1,-79.5,280.5,1041,1221,1024,1024,1024,,,,,
108,15.6,0m 15.6s,-26.91161194,-49.0337616,P-GPS,38.7,11.8,4.8,2.1,5.0,2.2,19.9,6.1,-26.91155751,-49.03376056,17,5,48,14.048,0.089,3.473,3.517,3.496,3.562,-2.1,-0.4,0,-7.2,2.8,-79.6,280.4,1062,1231,1024,1024,1024,,,,,
109,15.7,0m 15.7s,-26.91161402,-49.03376226,P-GPS,38.7,11.8,4.6,2.1,5.2,2.3,20.6,6.3,-26.91155751,-49.03376056,17,5,48,13.912,0.11,3.431,3.483,3.457,3.541,-2,-0.5,0.1,-7.2,2.5,-79.7,280.3,1064,1240,1024,1024,1024,,,,,
110,15.8,0m 15.8s,-26.91161581,-49.03376291,P-GPS,38.4,11.7,4.5,2.0,5.1,2.3,21.3,6.5,-26.91155751,-49.03376056,17,5,48,13.912,0.11,3.431,3.483,3.457,3.541,-1.9,-0.6,0,-7.2,2.2,-79.5,280.5,1065,1244,1024,1024,1024,,,,,
111,15.9,0m 15.9s,-26.91161726,-49.03376375,P-GPS,38.4,11.7,4.3,1.9,4.4,2.0,21.8,6.7,-26.91155751,-49.03376056,17,5,48,13.912,0.11,3.431,3.483,3.457,3.541,-1.8,-0.7,0,-7.3,2.4,-79.6,280.4,1064,1256,1024,1024,1024,,,,,
112,16,0m 16s,-26.91161903,-49.03376461,P-GPS,38.4,11.7,4.2,1.9,4.4,2.0,22.5,6.9,-26.91155751,-49.03376056,17,5,48,13.912,0.11,3.431,3.483,3.457,3.541,-1.7,-0.8,0,-7.2,2.5,-79.7,280.3,1044,1294,1024,1024,1024,,,,,
113,16.1,0m 16.1s,-26.91162034,-49.03376565,P-GPS,38.4,11.7,3.9,1.8,4.2,1.9,23.0,7.0,-26.91155751,-49.03376056,17,5,48,13.912,0.11,3.431,3.483,3.457,3.541,-1.5,-0.9,0,-7.2,2.2,-79.8,280.2,1035,1307,1024,1024,1024,,,,,
114,16.2,0m 16.2s,-26.91162172,-49.03376666,P-GPS,38.4,11.7,3.8,1.7,4.1,1.8,23.5,7.2,-26.91155751,-49.03376056,17,5,48,13.912,0.11,3.431,3.483,3.457,3.541,-1.4,-1,0,-8.1,1.9,-79.9,280.1,1029,1294,1024,1024,1024,,,,,
115,16.3,0m 16.3s,-26.9116227,-49.03376794,P-GPS,38.4,11.7,3.8,1.7,3.8,1.7,23.9,7.3,-26.91155751,-49.03376056,17,5,48,13.912,0.11,3.431,3.483,3.457,3.541,-1.3,-1.1,0,-9.1,1.7,-79.8,280.2,1029,1294,1024,1024,1024,,,,,
116,16.4,0m 16.4s,-26.91162388,-49.03376915,P-GPS,38.4,11.7,3.8,1.7,3.8,1.7,24.4,7.4,-26.91155751,-49.03376056,17,5,48,13.912,0.11,3.431,3.483,3.457,3.541,-1.2,-1.2,0,-9.1,1.5,-79.7,280.3,1028,1283,1024,1024,1024,,,,,
117,16.5,0m 16.5s,-26.91162483,-49.03377067,P-GPS,38.4,11.7,3.8,1.7,4.0,1.8,24.8,7.6,-26.91155751,-49.03376056,17,5,48,13.912,0.11,3.431,3.483,3.457,3.541,-1.1,-1.3,0,-8.6,1.2,-79.6,280.4,1024,1221,1024,1024,1024,,,,,
118,16.6,0m 16.6s,-26.91162577,-49.03377215,P-GPS,38.4,11.7,4.0,1.8,4.0,1.8,25.2,7.7,-26.91155751,-49.03376056,17,5,48,13.912,0.11,3.431,3.483,3.457,3.541,-1.1,-1.4,0,-7.2,0.9,-79.5,280.5,1024,1024,1024,1024,1024,,,,,
119,16.7,0m 16.7s,-26.91162648,-49.03377381,P-GPS,38.4,11.7,3.8,1.7,4.0,1.8,25.5,7.8,-26.91155751,-49.03376056,17,5,48,13.912,0.11,3.431,3.483,3.457,3.541,-1,-1.4,0,-3.3,0.8,-79.4,280.6,1024,1024,1024,1024,1024,,,,,
120,16.8,0m 16.8s,-26.9116274,-49.0337753,P-GPS,38.4,11.7,3.8,1.7,4.0,1.8,25.9,7.9,-26.91155751,-49.03376056,17,5,48,13.912,0.11,3.431,3.483,3.457,3.541,-1,-1.4,0,0,1,-79.4,280.6,1024,1024,1024,1024,1024,,,,,
121,16.9,0m 16.9s,-26.91162805,-49.03377692,P-GPS,38.4,11.7,3.7,1.7,3.8,1.7,26.3,8.0,-26.91155751,-49.03376056,17,5,48,13.912,0.11,3.431,3.483,3.457,3.541,-0.9,-1.4,0,2.2,1.9,-79.5,280.5,1024,1024,1024,996,1279,,,,,
122,17,0m 17s,-26.91162879,-49.03377839,P-GPS,38.4,11.7,3.4,1.5,3.7,1.6,26.6,8.1,-26.91155751,-49.03376056,17,5,48,13.912,0.11,3.431,3.483,3.457,3.541,-0.8,-1.3,0,3.6,3,-79.5,280.5,1024,1024,1024,1020,1484,,,,,
123,17.1,0m 17.1s,-26.91162939,-49.03377967,P-GPS,38.4,11.7,2.9,1.3,3.4,1.5,26.9,8.2,-26.91155751,-49.03376056,17,5,48,13.912,0.11,3.431,3.483,3.457,3.541,-0.7,-1.1,-0.2,5.1,4.4,-79.6,280.4,1024,1024,1024,1021,1656,,,,,
124,17.2,0m 17.2s,-26.91163005,-49.03378077,P-GPS,38.4,11.7,2.4,1.1,3.2,1.4,27.3,8.3,-26.91155751,-49.03376056,17,5,48,13.912,0.11,3.431,3.483,3.457,3.541,-0.6,-0.9,-0.6,6,5.4,-79.6,280.4,1024,1024,1024,1022,1677,,,,,
125,17.3,0m 17.3s,-26.91163021,-49.03378197,P-GPS,38.7,11.8,2.1,0.9,2.6,1.2,27.4,8.4,-26.91155751,-49.03376056,17,5,48,13.912,0.11,3.431,3.483,3.457,3.541,-0.5,-0.8,-1,5.8,5.7,-79.6,280.4,1024,1024,1024,1022,1664,,,,,
126,17.4,0m 17.4s,-26.91163062,-49.03378276,P-GPS,39.4,12.0,1.8,0.8,2.6,1.2,27.6,8.4,-26.91155751,-49.03376056,17,5,48,13.912,0.11,3.431,3.483,3.457,3.541,-0.4,-0.7,-1.4,5.5,5.6,-79.4,280.6,1024,1024,1024,1023,1662,,,,,
127,17.5,0m 17.5s,-26.91163078,-49.03378332,P-GPS,39.7,12.1,1.5,0.7,1.5,0.7,27.7,8.5,-26.91155751,-49.03376056,17,5,48,13.912,0.11,3.431,3.483,3.457,3.541,-0.3,-0.6,-1.5,5.6,5.1,-79.3,280.7,1024,1024,1024,1024,1666,,,,,
128,17.6,0m 17.6s,-26.9116309,-49.03378419,P-GPS,40.0,12.2,1.2,0.5,1.5,0.7,27.9,8.5,-26.91155751,-49.03376056,17,5,48,13.912,0.11,3.431,3.483,3.457,3.541,-0.2,-0.5,-1.5,5.5,4.5,-79.2,280.8,1024,1024,1024,1024,1681,,,,,
129,17.7,0m 17.7s,-26.91163082,-49.03378447,P-GPS,40.7,12.4,0.9,0.4,1.5,0.7,27.9,8.5,-26.91155751,-49.03376056,17,5,48,13.921,0.1,3.434,3.493,3.46,3.534,-0.1,-0.4,-1.6,5.3,3.7,-79.2,280.8,1024,1024,1024,1024,1679,,,,,
130,17.8,0m 17.8s,-26.91163097,-49.03378489,P-GPS,41.3,12.6,0.7,0.3,0.0,0.0,27.9,8.5,-26.91155751,-49.03376056,17,5,48,13.921,0.1,3.434,3.493,3.46,3.534,-0.1,-0.3,-1.7,4.8,2.9,-79.3,280.7,1024,1024,1024,1024,1684,,,,,
131,17.9,0m 17.9s,-26.91163075,-49.03378516,P-GPS,41.7,12.7,0.7,0.3,1.1,0.5,27.9,8.5,-26.91155751,-49.03376056,17,5,48,13.921,0.1,3.434,3.493,3.46,3.534,0,-0.3,-1.7,3.9,2.1,-79.3,280.7,1024,1024,1024,1024,1684,,,,,
132,18,0m 18s,-26.91163082,-49.03378544,P-GPS,42.3,12.9,0.4,0.2,0.0,0.0,27.9,8.5,-26.91155751,-49.03376056,17,5,48,13.921,0.1,3.434,3.493,3.46,3.534,0,-0.2,-1.8,2.9,1.4,-79,281,1024,1024,1024,1024,1684,,,,,
133,18.1,0m 18.1s,-26.91163053,-49.03378521,P-GPS,43.0,13.1,0.4,0.2,0.0,0.0,27.8,8.5,-26.91155751,-49.03376056,17,5,48,13.921,0.1,3.434,3.493,3.46,3.534,0,-0.2,-1.8,2.2,0.8,-79,281,1024,1024,1024,1023,1684,,,,,
134,18.2,0m 18.2s,-26.91163043,-49.03378553,P-GPS,43.6,13.3,0.2,0.1,0.0,0.0,27.8,8.5,-26.91155751,-49.03376056,17,5,48,13.921,0.1,3.434,3.493,3.46,3.534,0,-0.1,-1.8,1.5,0.4,-79.3,280.7,1024,1024,1024,1024,1684,,,,,
135,18.3,0m 18.3s,-26.91163015,-49.03378535,P-GPS,44.3,13.5,0.2,0.1,0.0,0.0,27.7,8.4,-26.91155751,-49.03376056,17,5,48,13.921,0.1,3.434,3.493,3.46,3.534,0,-0.1,-1.8,1,0,-79.4,280.6,1024,1024,1024,1024,1684,,,,,
136,18.4,0m 18.4s,-26.91163008,-49.03378552,P-GPS,44.6,13.6,0.2,0.1,0.0,0.0,27.7,8.4,-26.91155751,-49.03376056,17,5,48,13.921,0.1,3.434,3.493,3.46,3.534,0,-0.1,-1.8,0.8,-0.5,-79.2,280.8,1024,1024,1024,1024,1684,,,,,
137,18.5,0m 18.5s,-26.9116296,-49.0337852,P-GPS,45.3,13.8,0.0,0.0,1.1,0.5,27.5,8.4,-26.91155751,-49.03376056,17,5,48,13.921,0.1,3.434,3.493,3.46,3.534,0,0,-1.8,1,-1.1,-79.1,280.9,1024,1024,1024,1024,1684,,,,,
138,18.6,0m 18.6s,-26.91162953,-49.03378529,P-GPS,45.9,14.0,0.0,0.0,1.5,0.7,27.5,8.4,-26.91155751,-49.03376056,17,5,48,13.921,0.1,3.434,3.493,3.46,3.534,0,0,-1.9,0.9,-1.5,-79,281,1024,1024,1024,1024,1684,,,,,
139,18.8,0m 18.8s,-26.91162912,-49.03378504,P-GPS,46.9,14.3,0.0,0.0,0.7,0.3,27.3,8.3,-26.91155751,-49.03376056,17,5,47,13.889,0.121,3.419,3.476,3.454,3.54,0,0,-1.9,0.4,-2.2,-78.8,281.2,1024,1024,1024,1024,1684,,,,,
140,18.9,0m 18.9s,-26.91162907,-49.03378484,P-GPS,47.6,14.5,0.0,0.0,0.7,0.3,27.3,8.3,-26.91155751,-49.03376056,17,5,47,13.889,0.121,3.419,3.476,3.454,3.54,0,0,-1.9,0.1,-2,-78.9,281.1,1024,1024,1024,1024,1684,,,,,
141,19,0m 19s,-26.91162906,-49.03378489,P-GPS,48.2,14.7,0.0,0.0,1.1,0.5,27.3,8.3,-26.91155751,-49.03376056,17,5,47,13.889,0.121,3.419,3.476,3.454,3.54,0,0,-1.9,0,-2,-79,281,1024,1024,1024,1024,1684,,,,,
142,19.1,0m 19.1s,-26.91162882,-49.03378467,P-GPS,48.9,14.9,0.0,0.0,0.0,0.0,27.2,8.3,-26.91155751,-49.03376056,17,5,47,13.889,0.121,3.419,3.476,3.454,3.54,0,0,-1.9,-0.1,-2,-79,281,1024,1024,1024,1024,1684,,,,,
143,19.2,0m 19.2s,-26.91162891,-49.03378474,P-GPS,49.5,15.1,0.2,0.1,1.1,0.5,27.2,8.3,-26.91155751,-49.03376056,17,5,47,13.889,0.121,3.419,3.476,3.454,3.54,0,-0.1,-1.9,-0.3,-1.9,-79,281,1024,1024,1024,1024,1684,,,,,
144,19.3,0m 19.3s,-26.9116289,-49.03378472,P-GPS,50.2,15.3,0.0,0.0,0.0,0.0,27.2,8.3,-26.91155751,-49.03376056,17,5,47,13.889,0.121,3.419,3.476,3.454,3.54,0,0,-2,-0.3,-1.6,-79.2,280.8,1024,1024,1024,1024,1684,,,,,
145,19.4,0m 19.4s,-26.91162881,-49.03378467,P-GPS,50.9,15.5,0.2,0.1,0.0,0.0,27.2,8.3,-26.91155751,-49.03376056,17,5,47,13.889,0.121,3.419,3.476,3.454,3.54,0,-0.1,-1.9,-0.1,-1.2,-79.4,280.6,1024,1024,1024,1023,1684,,,,,
146,19.5,0m 19.5s,-26.91162886,-49.03378475,P-GPS,51.2,15.6,0.2,0.1,0.0,0.0,27.2,8.3,-26.91155751,-49.03376056,17,5,47,13.889,0.121,3.419,3.476,3.454,3.54,0,-0.1,-1.9,0,-1,-79.3,280.7,1024,1024,1024,1022,1684,,,,,
147,19.6,0m 19.6s,-26.91162888,-49.03378482,P-GPS,51.8,15.8,0.2,0.1,0.0,0.0,27.2,8.3,-26.91155751,-49.03376056,17,5,47,13.889,0.121,3.419,3.476,3.454,3.54,0,-0.1,-1.9,0.1,-1.1,-79.3,280.7,1024,1024,1024,1023,1684,,,,,
148,19.7,0m 19.7s,-26.91162894,-49.03378492,P-GPS,52.5,16.0,0.2,0.1,0.0,0.0,27.2,8.3,-26.91155751,-49.03376056,17,5,47,13.889,0.121,3.419,3.476,3.454,3.54,0,-0.1,-1.9,0.4,-1.4,-79,281,1024,1024,1024,1022,1684,,,,,
149,19.8,0m 19.8s,-26.91162902,-49.03378508,P-GPS,53.1,16.2,0.2,0.1,0.0,0.0,27.3,8.3,-26.91155751,-49.03376056,17,5,47,13.512,0.156,3.305,3.385,3.361,3.461,0,-0.1,-2,0.6,-1.6,-78.8,281.2,1024,1024,1024,1023,1677,,,,,
150,19.9,0m 19.9s,-26.91162914,-49.03378511,P-GPS,53.8,16.4,0.3,0.1,0.0,0.0,27.3,8.3,-26.91155751,-49.03376056,17,5,47,13.512,0.156,3.305,3.385,3.361,3.461,-0.1,-0.1,-2,0.7,-1.2,-78.7,281.3,1024,1024,1024,1022,1631,,,,,
151,20,0m 20s,-26.91162924,-49.03378527,P-GPS,54.5,16.6,0.3,0.1,0.0,0.0,27.4,8.3,-26.91155751,-49.03376056,17,5,47,13.512,0.156,3.305,3.385,3.361,3.461,-0.1,-0.1,-1.9,0.9,-0.9,-78.7,281.3,1024,1024,1024,1022,1545,,,,,
152,20.1,0m 20.1s,-26.91162936,-49.03378519,P-GPS,55.1,16.8,0.3,0.1,0.0,0.0,27.4,8.4,-26.91155751,-49.03376056,17,5,47,13.512,0.156,3.305,3.385,3.361,3.461,-0.1,-0.1,-1.8,1.1,-0.8,-78.7,281.3,1024,1024,1024,1022,1505,,,,,
153,20.2,0m 20.2s,-26.91162948,-49.03378535,P-GPS,55.8,17.0,0.3,0.1,1.1,0.5,27.5,8.4,-26.91155751,-49.03376056,17,5,47,13.512,0.156,3.305,3.385,3.361,3.461,-0.1,-0.1,-1.6,1.2,-0.4,-78.8,281.2,1024,1024,1024,1022,1484,,,,,
154,20.3,0m 20.3s,-26.91162965,-49.03378542,P-GPS,56.1,17.1,0.3,0.1,0.0,0.0,27.5,8.4,-26.91155751,-49.03376056,17,5,47,13.512,0.156,3.305,3.385,3.361,3.461,-0.1,-0.1,-1.4,1.2,-0.1,-78.8,281.2,1024,1024,1024,1024,1433,,,,,
155,20.4,0m 20.4s,-26.91162973,-49.0337855,P-GPS,56.4,17.2,0.3,0.1,0.0,0.0,27.6,8.4,-26.91155751,-49.03376056,17,5,47,13.512,0.156,3.305,3.385,3.361,3.461,-0.1,-0.1,-1.3,1.1,0,-78.9,281.1,1024,1024,1024,1024,1391,,,,,
156,20.5,0m 20.5s,-26.91162995,-49.03378565,P-GPS,57.1,17.4,0.3,0.1,0.0,0.0,27.7,8.4,-26.91155751,-49.03376056,17,5,47,13.512,0.156,3.305,3.385,3.361,3.461,-0.1,-0.1,-1.1,1.2,0.2,-78.8,281.2,1024,1024,1024,1024,1351,,,,,
157,20.6,0m 20.6s,-26.91163007,-49.03378579,P-GPS,57.4,17.5,0.3,0.1,0.0,0.0,27.7,8.4,-26.91155751,-49.03376056,17,5,47,13.512,0.156,3.305,3.385,3.361,3.461,-0.1,-0.1,-1,1.2,0.6,-78.7,281.3,1024,1024,1024,1024,1024,,,,,
158,20.7,0m 20.7s,-26.91163024,-49.0337858,P-GPS,57.7,17.6,0.3,0.1,0.0,0.0,27.8,8.5,-26.91155751,-49.03376056,17,5,47,13.512,0.156,3.305,3.385,3.361,3.461,-0.1,-0.1,-0.8,1.4,0.6,-78.6,281.4,1024,1024,1024,1024,1024,,,,,
159,20.8,0m 20.8s,-26.91163035,-49.03378591,P-GPS,57.7,17.6,0.3,0.1,0.0,0.0,27.8,8.5,-26.91155751,-49.03376056,17,5,47,13.647,0.14,3.354,3.409,3.39,3.494,-0.1,-0.1,-0.5,1.4,0.7,-78.6,281.4,1024,1024,1024,1024,1024,,,,,
160,20.9,0m 20.9s,-26.91163056,-49.03378593,P-GPS,58.1,17.7,0.2,0.1,0.0,0.0,27.9,8.5,-26.91155751,-49.03376056,17,5,47,13.647,0.14,3.354,3.409,3.39,3.494,-0.1,0,-0.3,1.3,0.6,-78.7,281.3,1024,1024,1024,1024,1024,,,,,
161,21,0m 21s,-26.91163062,-49.03378599,P-GPS,58.1,17.7,0.2,0.1,0.0,0.0,27.9,8.5,-26.91155751,-49.03376056,17,5,47,13.647,0.14,3.354,3.409,3.39,3.494,-0.1,0,-0.3,1,0.6,-78.9,281.1,1024,1024,1024,1024,1024,,,,,
162,21.1,0m 21.1s,-26.9116307,-49.03378605,P-GPS,58.1,17.7,0.2,0.1,0.0,0.0,28.0,8.5,-26.91155751,-49.03376056,17,5,47,13.647,0.14,3.354,3.409,3.39,3.494,-0.1,0,-0.2,0.8,0.6,-79.2,280.8,1024,1024,1024,1024,1024,,,,,
163,21.2,0m 21.2s,-26.91163081,-49.03378611,P-GPS,58.1,17.7,0.2,0.1,0.0,0.0,28.0,8.5,-26.91155751,-49.03376056,17,5,47,13.647,0.14,3.354,3.409,3.39,3.494,-0.1,0,-0.1,0.5,0.7,-79.5,280.5,1024,1024,1024,1024,1024,,,,,
164,21.3,0m 21.3s,-26.91163111,-49.03378595,P-GPS,58.1,17.7,0.2,0.1,1.1,0.5,28.1,8.6,-26.91155751,-49.03376056,17,5,47,13.647,0.14,3.354,3.409,3.39,3.494,-0.1,0,-0.1,0.4,0.8,-79.7,280.3,1024,1024,1024,1024,1024,,,,,
165,21.4,0m 21.4s,-26.91163121,-49.03378599,P-GPS,58.4,17.8,0.2,0.1,0.0,0.0,28.1,8.6,-26.91155751,-49.03376056,17,5,47,13.647,0.14,3.354,3.409,3.39,3.494,-0.1,0,-0.1,0.3,1,-79.9,280.1,1024,1024,1024,1024,1024,,,,,
166,21.5,0m 21.5s,-26.9116314,-49.03378606,P-GPS,58.4,17.8,0.0,0.0,0.0,0.0,28.2,8.6,-26.91155751,-49.03376056,17,5,47,13.647,0.14,3.354,3.409,3.39,3.494,0,0,0,0.1,1.1,-80,280,1024,1024,1024,1024,1024,,,,,
167,21.6,0m 21.6s,-26.91163143,-49.03378604,P-GPS,58.1,17.7,0.0,0.0,0.0,0.0,28.2,8.6,-26.91155751,-49.03376056,17,5,47,13.647,0.14,3.354,3.409,3.39,3.494,0,0,0,0.1,1.2,-79.9,280.1,1024,1024,1024,1024,1024,,,,,
168,21.7,0m 21.7s,-26.9116316,-49.03378602,P-GPS,58.4,17.8,0.0,0.0,0.0,0.0,28.3,8.6,-26.91155751,-49.03376056,17,5,47,13.647,0.14,3.354,3.409,3.39,3.494,0,0,0,0.4,1.3,-79.8,280.2,1024,1024,1024,1023,1024,,,,,
169,21.8,0m 21.8s,-26.91163167,-49.03378608,P-GPS,58.4,17.8,0.0,0.0,1.1,0.5,28.3,8.6,-26.91155751,-49.03376056,17,5,47,13.715,0.122,3.376,3.438,3.403,3.498,0,0,0,0.7,1.4,-79.7,280.3,1024,1024,1024,1024,1024,,,,,
170,21.9,0m 21.9s,-26.91163175,-49.03378612,P-GPS,58.1,17.7,0.0,0.0,0.0,0.0,28.3,8.6,-26.91155751,-49.03376056,17,5,47,13.715,0.122,3.376,3.438,3.403,3.498,0,0,0,1,1.5,-79.4,280.6,1024,1024,1024,1024,1024,,,,,
171,22,0m 22s,-26.91163176,-49.03378615,P-GPS,58.1,17.7,0.0,0.0,0.0,0.0,28.3,8.6,-26.91155751,-49.03376056,17,5,47,13.715,0.122,3.376,3.438,3.403,3.498,0,0,0,1.1,1.7,-79.2,280.8,1024,1024,1024,1024,1024,,,,,
172,22.2,0m 22.2s,-26.91163185,-49.03378621,P-GPS,58.1,17.7,0.0,0.0,0.0,0.0,28.4,8.6,-26.91155751,-49.03376056,17,5,47,13.715,0.122,3.376,3.438,3.403,3.498,0,0,0,1,1.6,-79,281,1024,1024,1024,1024,1024,,,,,
173,22.3,0m 22.3s,-26.91163203,-49.03378628,P-GPS,58.1,17.7,0.0,0.0,0.7,0.3,28.4,8.7,-26.91155751,-49.03376056,17,5,47,13.715,0.122,3.376,3.438,3.403,3.498,0,0,0,0.8,1.3,-78.9,281.1,1024,1024,1024,1024,1024,,,,,
174,22.4,0m 22.4s,-26.91163203,-49.03378626,P-GPS,58.1,17.7,0.0,0.0,1.1,0.5,28.4,8.7,-26.91155751,-49.03376056,17,5,47,13.715,0.122,3.376,3.438,3.403,3.498,0,0,0,0.8,1.1,-78.8,281.2,1024,1024,1024,1024,1024,,,,,
175,22.5,0m 22.5s,-26.91163212,-49.03378639,P-GPS,58.1,17.7,0.0,0.0,0.0,0.0,28.5,8.7,-26.91155751,-49.03376056,17,5,47,13.715,0.122,3.376,3.438,3.403,3.498,0,0,0,0.6,1,-78.9,281.1,1024,1024,1024,1024,1024,,,,,
176,22.6,0m 22.6s,-26.91163213,-49.03378638,P-GPS,58.1,17.7,0.0,0.0,0.0,0.0,28.5,8.7,-26.91155751,-49.03376056,17,5,47,13.715,0.122,3.376,3.438,3.403,3.498,0,0,0,0.5,1.3,-79.1,280.9,1024,1024,1024,1024,1024,,,,,
177,22.7,0m 22.7s,-26.91163224,-49.03378636,P-GPS,58.1,17.7,0.0,0.0,0.0,0.0,28.5,8.7,-26.91155751,-49.03376056,17,5,47,13.715,0.122,3.376,3.438,3.403,3.498,0,0,0,1,1.5,-79.2,280.8,1024,1024,1024,1024,1024,,,,,
178,22.8,0m 22.8s,-26.91163222,-49.03378636,P-GPS,58.1,17.7,0.0,0.0,0.0,0.0,28.5,8.7,-26.91155751,-49.03376056,17,5,47,13.715,0.122,3.376,3.438,3.403,3.498,0,0,0,1.5,1.6,-79.2,280.8,1024,1024,1024,1024,1024,,,,,
179,22.9,0m 22.9s,-26.91163233,-49.03378633,P-GPS,58.1,17.7,0.0,0.0,1.1,0.5,28.6,8.7,-26.91155751,-49.03376056,17,5,47,13.91,0.128,3.422,3.485,3.453,3.55,0,0,0,1.5,1.5,-79.1,280.9,1024,1024,1024,1024,1024,,,,,
180,23,0m 23s,-26.91163233,-49.03378629,P-GPS,58.1,17.7,0.0,0.0,0.0,0.0,28.6,8.7,-26.91155751,-49.03376056,17,5,47,13.91,0.128,3.422,3.485,3.453,3.55,0,0,0,1.3,1.2,-79.1,280.9,1024,1024,1024,1024,1024,,,,,
181,23.1,0m 23.1s,-26.91163245,-49.03378624,P-GPS,58.1,17.7,0.0,0.0,0.0,0.0,28.6,8.7,-26.91155751,-49.03376056,17,5,47,13.91,0.128,3.422,3.485,3.453,3.55,0,0,0,0.8,1.2,-79,281,1024,1024,1024,1024,1024,,,,,
182,23.2,0m 23.2s,-26.91163244,-49.03378619,P-GPS,58.1,17.7,0.0,0.0,0.0,0.0,28.6,8.7,-26.91155751,-49.03376056,17,5,47,13.91,0.128,3.422,3.485,3.453,3.55,0,0,0,0.2,1.5,-79,281,1024,1024,1024,1024,1024,,,,,
183,23.3,0m 23.3s,-26.91163246,-49.03378605,P-GPS,58.1,17.7,0.0,0.0,0.0,0.0,28.6,8.7,-26.91155751,-49.03376056,17,5,47,13.91,0.128,3.422,3.485,3.453,3.55,0,0,0,0,1.7,-79,281,1024,1024,1024,1024,1024,,,,,
184,23.4,0m 23.4s,-26.91163248,-49.03378603,P-GPS,58.1,17.7,0.0,0.0,0.0,0.0,28.6,8.7,-26.91155751,-49.03376056,17,5,47,13.91,0.128,3.422,3.485,3.453,3.55,0,0,0,-0.1,1.5,-79.1,280.9,1024,1024,1024,1024,1024,,,,,
185,23.5,0m 23.5s,-26.91163255,-49.03378594,P-GPS,58.1,17.7,0.0,0.0,0.0,0.0,28.6,8.7,-26.91155751,-49.03376056,17,5,47,13.91,0.128,3.422,3.485,3.453,3.55,0,0,0,-0.1,1.4,-79.3,280.7,1024,1024,1024,1024,1024,,,,,
186,23.6,0m 23.6s,-26.91163255,-49.03378596,P-GPS,58.1,17.7,0.0,0.0,0.0,0.0,28.6,8.7,-26.91155751,-49.03376056,17,5,47,13.91,0.128,3.422,3.485,3.453,3.55,0,0,0,0,1.5,-79.3,280.7,1024,1024,1024,1024,1024,,,,,
187,23.7,0m 23.7s,-26.91163265,-49.03378579,P-GPS,58.1,17.7,0.0,0.0,0.0,0.0,28.6,8.7,-26.91155751,-49.03376056,17,5,47,13.91,0.128,3.422,3.485,3.453,3.55,0,0,0,-0.1,1.6,-79.3,280.7,1024,1024,1024,1024,1024,,,,,
188,23.8,0m 23.8s,-26.91163262,-49.03378581,P-GPS,58.1,17.7,0.0,0.0,0.0,0.0,28.6,8.7,-26.91155751,-49.03376056,17,5,47,13.91,0.128,3.422,3.485,3.453,3.55,0,0,0,-0.4,1.8,-79.4,280.6,1024,1024,1024,1024,1024,,,,,
189,23.9,0m 23.9s,-26.9116327,-49.03378574,P-GPS,58.1,17.7,0.0,0.0,0.0,0.0,28.6,8.7,-26.91155751,-49.03376056,17,5,47,13.917,0.093,3.445,3.484,3.45,3.538,0,0,0,-0.5,2,-79.4,280.6,1024,1024,1024,1024,1024,,,,,
190,24,0m 24s,-26.91163268,-49.03378577,P-GPS,58.1,17.7,0.0,0.0,0.0,0.0,28.6,8.7,-26.91155751,-49.03376056,17,5,47,13.917,0.093,3.445,3.484,3.45,3.538,0,0,0,-0.4,2.2,-79.3,280.7,1024,1024,1024,1024,1024,,,,,
191,24.1,0m 24.1s,-26.91163262,-49.03378565,P-GPS,58.1,17.7,0.0,0.0,0.0,0.0,28.6,8.7,-26.91155751,-49.03376056,17,5,47,13.917,0.093,3.445,3.484,3.45,3.538,0,0,0,-0.3,2.4,-79.3,280.7,1024,1024,1024,1024,1024,,,,,
192,24.2,0m 24.2s,-26.91163257,-49.03378567,P-GPS,58.1,17.7,0.0,0.0,0.0,0.0,28.6,8.7,-26.91155751,-49.03376056,17,5,47,13.917,0.093,3.445,3.484,3.45,3.538,0,0,0,-0.1,2.3,-79.3,280.7,1024,1024,1024,1024,1024,,,,,
193,24.3,0m 24.3s,-26.91163251,-49.03378558,P-GPS,58.1,17.7,0.0,0.0,0.0,0.0,28.5,8.7,-26.91155751,-49.03376056,17,5,47,13.917,0.093,3.445,3.484,3.45,3.538,0,0,0,0,2,-79.3,280.7,1024,1024,1024,1024,1024,,,,,
194,24.4,0m 24.4s,-26.91163247,-49.03378554,P-GPS,58.1,17.7,0.0,0.0,0.0,0.0,28.5,8.7,-26.91155751,-49.03376056,17,5,47,13.917,0.093,3.445,3.484,3.45,3.538,0,0,0,0.2,1.9,-79.4,280.6,1024,1024,1024,1024,1024,,,,,
195,24.5,0m 24.5s,-26.91163242,-49.03378554,P-GPS,58.1,17.7,0.0,0.0,0.0,0.0,28.5,8.7,-26.91155751,-49.03376056,17,5,47,13.917,0.093,3.445,3.484,3.45,3.538,0,0,0,0.3,1.8,-79.3,280.7,1024,1024,1024,1024,1024,,,,,
196,24.6,0m 24.6s,-26.91163238,-49.03378553,P-GPS,58.1,17.7,0.0,0.0,0.0,0.0,28.5,8.7,-26.91155751,-49.03376056,17,5,47,13.917,0.093,3.445,3.484,3.45,3.538,0,0,0,0.3,1.5,-79.3,280.7,1024,1024,1024,1024,1024,,,,,
197,24.7,0m 24.7s,-26.91163216,-49.03378552,P-GPS,58.1,17.7,0.2,0.1,1.1,0.5,28.4,8.7,-26.91155751,-49.03376056,17,5,47,13.917,0.093,3.445,3.484,3.45,3.538,0.1,0,0,0.3,1.3,-79.2,280.8,1024,1024,1024,1024,1024,,,,,
198,24.8,0m 24.8s,-26.9116321,-49.0337855,P-GPS,58.1,17.7,0.2,0.1,0.0,0.0,28.4,8.7,-26.91155751,-49.03376056,17,5,47,13.917,0.093,3.445,3.484,3.45,3.538,0.1,0,0,0.4,1.2,-79.2,280.8,1024,1024,1024,1024,1024,,,,,
199,24.9,0m 24.9s,-26.91163193,-49.03378558,P-GPS,58.1,17.7,0.2,0.1,0.0,0.0,28.3,8.6,-26.91155751,-49.03376056,17,5,47,13.891,0.13,3.418,3.473,3.452,3.548,0.1,0,0,0.4,1,-79.1,280.9,1024,1024,1024,1024,1024,,,,,
200,25,0m 25s,-26.91163179,-49.03378559,P-GPS,58.1,17.7,0.2,0.1,0.0,0.0,28.3,8.6,-26.91155751,-49.03376056,17,5,47,13.891,0.13,3.418,3.473,3.452,3.548,0.1,0,0,0.6,0.7,-79.1,280.9,1024,1024,1024,1024,1024,,,,,
201,25.2,0m 25.2s,-26.91163166,-49.03378533,P-GPS,58.1,17.7,0.0,0.0,0.0,0.0,28.2,8.6,-26.91155751,-49.03376056,17,5,47,13.891,0.13,3.418,3.473,3.452,3.548,0,0,0,0.7,0.6,-78.8,281.2,1024,1024,1024,1024,1024,,,,,
202,25.3,0m 25.3s,-26.91163157,-49.03378523,P-GPS,58.1,17.7,0.0,0.0,0.7,0.3,28.2,8.6,-26.91155751,-49.03376056,17,5,47,13.891,0.13,3.418,3.473,3.452,3.548,0,0,0,0.5,0.6,-78.7,281.3,1024,1024,1024,1024,1024,,,,,
203,25.4,0m 25.4s,-26.91163149,-49.03378517,P-GPS,58.1,17.7,0.0,0.0,0.0,0.0,28.2,8.6,-26.91155751,-49.03376056,17,5,47,13.891,0.13,3.418,3.473,3.452,3.548,0,0,0,0.3,0.6,-78.6,281.4,1024,1024,1024,1024,1024,,,,,
204,25.5,0m 25.5s,-26.91163144,-49.03378509,P-GPS,57.7,17.6,0.0,0.0,0.0,0.0,28.1,8.6,-26.91155751,-49.03376056,17,5,47,13.891,0.13,3.418,3.473,3.452,3.548,0,0,0,0.2,0.8,-78.6,281.4,1024,1024,1024,1024,1024,,,,,
205,25.6,0m 25.6s,-26.91163129,-49.03378499,P-GPS,57.7,17.6,0.0,0.0,0.0,0.0,28.1,8.6,-26.91155751,-49.03376056,17,5,47,13.891,0.13,3.418,3.473,3.452,3.548,0,0,0,0.1,0.8,-78.6,281.4,1024,1024,1024,1024,1024,,,,,
206,25.7,0m 25.7s,-26.91163122,-49.03378483,P-GPS,57.7,17.6,0.0,0.0,0.0,0.0,28.0,8.5,-26.91155751,-49.03376056,17,5,47,13.891,0.13,3.418,3.473,3.452,3.548,0,0,0,0,0.7,-78.6,281.4,1024,1024,1024,1024,1024,,,,,
207,25.8,0m 25.8s,-26.91163116,-49.03378476,P-GPS,57.7,17.6,0.0,0.0,0.0,0.0,28.0,8.5,-26.91155751,-49.03376056,17,5,47,13.891,0.13,3.418,3.473,3.452,3.548,0,0,0,-0.1,0.5,-78.7,281.3,1024,1024,1100,1024,1024,,,,,
208,25.9,0m 25.9s,-26.91163103,-49.0337847,P-GPS,58.1,17.7,0.0,0.0,0.0,0.0,27.9,8.5,-26.91155751,-49.03376056,17,5,47,13.891,0.13,3.418,3.473,3.452,3.548,0,0,0,-0.2,0.2,-78.7,281.3,1024,1024,1546,1024,1024,,,,,
209,26,0m 26s,-26.911631,-49.03378461,P-GPS,57.7,17.6,0.0,0.0,0.0,0.0,27.9,8.5,-26.91155751,-49.03376056,17,5,47,13.892,0.119,3.42,3.479,3.454,3.539,0,0,0,-0.5,0.2,-78.7,281.3,1024,1024,1024,1024,1024,,,,,
210,26.1,0m 26.1s,-26.91163103,-49.03378438,P-GPS,57.7,17.6,0.0,0.0,NaN,NaN,27.9,8.5,-26.91155751,-49.03376056,17,5,47,13.892,0.119,3.42,3.479,3.454,3.539,0,0,0,-0.7,0.1,-78.6,281.4,1024,1024,1024,1024,1024,,,,,
211,26.2,0m 26.2s,-26.91163103,-49.03378428,P-GPS,57.7,17.6,0.0,0.0,0.0,0.0,27.9,8.5,-26.91155751,-49.03376056,17,5,47,13.892,0.119,3.42,3.479,3.454,3.539,0,0,0,-0.9,0.1,-78.6,281.4,1024,1024,1024,1024,1024,,,,,
212,26.3,0m 26.3s,-26.91163112,-49.03378415,P-GPS,57.7,17.6,0.2,0.1,0.0,0.0,27.9,8.5,-26.91155751,-49.03376056,17,5,47,13.892,0.119,3.42,3.479,3.454,3.539,0,0.1,0,-1,0.2,-78.5,281.5,1024,1024,1024,1024,1024,,,,,
213,26.4,0m 26.4s,-26.91163115,-49.03378404,P-GPS,58.1,17.7,0.2,0.1,0.0,0.0,27.9,8.5,-26.91155751,-49.03376056,17,5,47,13.892,0.119,3.42,3.479,3.454,3.539,0,0.1,0,-1.1,0.4,-78.4,281.6,1024,1024,1024,1024,1024,,,,,
214,26.5,0m 26.5s,-26.91163125,-49.03378386,P-GPS,58.1,17.7,0.0,0.0,0.0,0.0,27.9,8.5,-26.91155751,-49.03376056,17,5,47,13.892,0.119,3.42,3.479,3.454,3.539,0,0,0,-1.1,0.8,-78.4,281.6,1024,1024,1024,1024,1024,,,,,
215,26.6,0m 26.6s,-26.91163124,-49.03378372,P-GPS,58.1,17.7,0.0,0.0,0.0,0.0,27.9,8.5,-26.91155751,-49.03376056,17,5,47,13.892,0.119,3.42,3.479,3.454,3.539,0,0,0,-1.1,0.9,-78.4,281.6,1024,1024,1024,1024,1024,,,,,
216,26.7,0m 26.7s,-26.91163128,-49.03378365,P-GPS,58.1,17.7,0.0,0.0,0.0,0.0,27.9,8.5,-26.91155751,-49.03376056,17,5,47,13.892,0.119,3.42,3.479,3.454,3.539,0,0,0,-1.2,0.9,-78.5,281.5,1024,1024,883,1024,1024,,,,,
217,26.8,0m 26.8s,-26.91163133,-49.03378357,P-GPS,58.1,17.7,0.0,0.0,0.0,0.0,27.9,8.5,-26.91155751,-49.03376056,17,5,47,13.892,0.119,3.42,3.479,3.454,3.539,0,0,0,-1.1,1.4,-78.4,281.6,1024,1024,545,1024,1024,,,,,
218,26.9,0m 26.9s,-26.91163146,-49.03378347,P-GPS,58.1,17.7,0.0,0.0,1.1,0.5,28.0,8.5,-26.91155751,-49.03376056,17,5,47,13.892,0.119,3.42,3.479,3.454,3.539,0,0,0,-1,1.9,-78.3,281.7,1024,1024,364,1024,1024,,,,,
219,27,0m 27s,-26.91163148,-49.03378339,P-GPS,58.1,17.7,0.0,0.0,1.1,0.5,28.0,8.5,-26.91155751,-49.03376056,17,5,47,13.856,0.131,3.407,3.47,3.441,3.538,0,0,0,-1.1,1.9,-78.4,281.6,1024,1024,364,1024,1024,,,,,
220,27.1,0m 27.1s,-26.91163151,-49.0337832,P-GPS,58.1,17.7,0.0,0.0,0.0,0.0,28.0,8.5,-26.91155751,-49.03376056,17,5,47,13.856,0.131,3.407,3.47,3.441,3.538,0,0,0,-1.2,1.8,-78.5,281.5,1024,1024,501,1024,1024,,,,,
221,27.3,0m 27.3s,-26.91163153,-49.03378312,P-GPS,57.7,17.6,0.0,0.0,0.7,0.3,28.0,8.5,-26.91155751,-49.03376056,17,5,47,13.856,0.131,3.407,3.47,3.441,3.538,0,0,0,-1.7,1.5,-78.8,281.2,1024,1024,1024,1024,1024,,,,,
222,27.4,0m 27.4s,-26.9116315,-49.03378316,P-GPS,58.1,17.7,0.0,0.0,0.0,0.0,28.0,8.5,-26.91155751,-49.03376056,17,5,47,13.856,0.131,3.407,3.47,3.441,3.538,0,0,0,-2,1.5,-78.9,281.1,1024,1024,1024,1024,1024,,,,,
223,27.6,0m 27.6s,-26.91163136,-49.03378303,P-GPS,58.1,17.7,0.0,0.0,0.0,0.0,27.9,8.5,-26.91155751,-49.03376056,17,5,47,13.856,0.131,3.407,3.47,3.441,3.538,0,0,0,-1.9,1.6,-79,281,1024,1024,621,1024,1024,,,,,
224,27.7,0m 27.7s,-26.91163134,-49.03378299,P-GPS,58.1,17.7,0.0,0.0,0.0,0.0,27.9,8.5,-26.91155751,-49.03376056,17,5,47,13.856,0.131,3.407,3.47,3.441,3.538,0,0,0,-1.6,1.5,-79.1,280.9,1024,1024,364,1024,1024,,,,,
225,27.8,0m 27.8s,-26.91163131,-49.03378304,P-GPS,58.1,17.7,0.0,0.0,0.0,0.0,27.9,8.5,-26.91155751,-49.03376056,17,5,47,13.856,0.131,3.407,3.47,3.441,3.538,0,0,0,-1.5,1.4,-79.1,280.9,1024,1024,364,1024,1024,,,,,
226,27.9,0m 27.9s,-26.91163119,-49.03378309,P-GPS,58.1,17.7,0.0,0.0,0.0,0.0,27.9,8.5,-26.91155751,-49.03376056,17,5,47,13.856,0.131,3.407,3.47,3.441,3.538,0,0,0,-1.4,1.4,-79.2,280.8,1024,1024,364,1024,1024,,,,,
227,28,0m 28s,-26.91163118,-49.03378313,P-GPS,58.1,17.7,0.0,0.0,0.0,0.0,27.9,8.5,-26.91155751,-49.03376056,17,5,47,13.856,0.131,3.407,3.47,3.441,3.538,0,0,0,-1.3,1.3,-79.3,280.7,1024,1024,364,1024,1024,,,,,
228,28.1,0m 28.1s,-26.91163095,-49.03378315,P-GPS,58.1,17.7,0.0,0.0,0.0,0.0,27.8,8.5,-26.91155751,-49.03376056,17,5,47,13.856,0.131,3.407,3.47,3.441,3.538,0,0,0,-1.2,1,-79.6,280.4,1024,1024,364,1024,1024,,,,,
229,28.2,0m 28.2s,-26.91163095,-49.03378318,P-GPS,58.1,17.7,0.0,0.0,0.0,0.0,27.8,8.5,-26.91155751,-49.03376056,17,5,47,13.816,0.115,3.401,3.467,3.432,3.516,0,0,0,-0.9,0.7,-79.7,280.3,1024,1024,364,1024,1024,,,,,
230,28.3,0m 28.3s,-26.91163077,-49.03378332,P-GPS,58.1,17.7,0.0,0.0,0.0,0.0,27.7,8.5,-26.91155751,-49.03376056,17,5,47,13.816,0.115,3.401,3.467,3.432,3.516,0,0,0,-0.7,0.6,-79.8,280.2,1024,1024,364,1024,1024,,,,,
231,28.4,0m 28.4s,-26.91163078,-49.03378332,P-GPS,58.1,17.7,0.0,0.0,0.0,0.0,27.7,8.5,-26.91155751,-49.03376056,17,5,47,13.816,0.115,3.401,3.467,3.432,3.516,0,0,0,-0.6,0.6,-79.9,280.1,1024,1024,364,1024,1024,,,,,
232,28.5,0m 28.5s,-26.91163062,-49.03378355,P-GPS,58.1,17.7,0.0,0.0,0.0,0.0,27.7,8.4,-26.91155751,-49.03376056,17,5,47,13.816,0.115,3.401,3.467,3.432,3.516,0,0,0,-0.5,0.7,-79.8,280.2,1024,1024,364,1024,1024,,,,,
233,28.6,0m 28.6s,-26.91163066,-49.03378357,P-GPS,58.1,17.7,0.0,0.0,0.0,0.0,27.7,8.4,-26.91155751,-49.03376056,17,5,47,13.816,0.115,3.401,3.467,3.432,3.516,0,0,0,-0.4,1,-79.8,280.2,1024,1024,364,1024,1024,,,,,
234,28.7,0m 28.7s,-26.91163067,-49.03378369,P-GPS,58.1,17.7,0.0,0.0,0.0,0.0,27.7,8.5,-26.91155751,-49.03376056,17,5,47,13.816,0.115,3.401,3.467,3.432,3.516,0,0,0,-0.5,1.1,-79.7,280.3,1024,1024,364,1024,1024,,,,,
235,28.8,0m 28.8s,-26.91163069,-49.03378371,P-GPS,58.1,17.7,0.0,0.0,0.0,0.0,27.7,8.5,-26.91155751,-49.03376056,17,5,47,13.816,0.115,3.401,3.467,3.432,3.516,0,0,0,-0.5,1.2,-79.6,280.4,1024,1024,364,1024,1024,,,,,
236,28.9,0m 28.9s,-26.91163071,-49.03378394,P-GPS,58.1,17.7,0.2,0.1,0.0,0.0,27.8,8.5,-26.91155751,-49.03376056,17,5,47,13.816,0.115,3.401,3.467,3.432,3.516,0,-0.1,0,-0.4,1.1,-79.6,280.4,1024,1024,1024,1024,1024,,,,,
237,29,0m 29s,-26.9116307,-49.03378397,P-GPS,58.1,17.7,0.2,0.1,0.0,0.0,27.8,8.5,-26.91155751,-49.03376056,17,5,47,13.816,0.115,3.401,3.467,3.432,3.516,0,-0.1,0,-0.3,1.1,-79.5,280.5,1024,1024,1024,1024,1024,,,,,
238,29.1,0m 29.1s,-26.91163071,-49.03378419,P-GPS,58.1,17.7,0.2,0.1,0.0,0.0,27.8,8.5,-26.91155751,-49.03376056,17,5,47,13.816,0.115,3.401,3.467,3.432,3.516,0,-0.1,0,-0.1,1.2,-79.4,280.6,1024,1024,1024,1024,1024,,,,,
239,29.2,0m 29.2s,-26.91163072,-49.03378424,P-GPS,58.1,17.7,0.2,0.1,0.0,0.0,27.8,8.5,-26.91155751,-49.03376056,17,5,47,13.873,0.098,3.425,3.481,3.444,3.523,0,-0.1,0,0,1.2,-79.4,280.6,1024,1024,796,1024,1024,,,,,
240,29.3,0m 29.3s,-26.91163083,-49.03378441,P-GPS,58.1,17.7,0.0,0.0,0.0,0.0,27.8,8.5,-26.91155751,-49.03376056,17,5,47,13.873,0.098,3.425,3.481,3.444,3.523,0,0,0,0.1,1.2,-79.3,280.7,1024,1024,364,1024,1024,,,,,
241,29.4,0m 29.4s,-26.91163085,-49.03378448,P-GPS,58.1,17.7,0.0,0.0,0.0,0.0,27.9,8.5,-26.91155751,-49.03376056,17,5,47,13.873,0.098,3.425,3.481,3.444,3.523,0,0,0,0.3,1.1,-79.1,280.9,1024,1024,364,1024,1024,,,,,
242,29.5,0m 29.5s,-26.91163087,-49.03378464,P-GPS,58.1,17.7,0.0,0.0,0.0,0.0,27.9,8.5,-26.91155751,-49.03376056,17,5,47,13.873,0.098,3.425,3.481,3.444,3.523,0,0,0,0.3,1.1,-79,281,1024,1024,364,1024,1024,,,,,
243,29.6,0m 29.6s,-26.9116309,-49.03378469,P-GPS,58.1,17.7,0.0,0.0,0.0,0.0,27.9,8.5,-26.91155751,-49.03376056,17,5,47,13.873,0.098,3.425,3.481,3.444,3.523,0,0,0,0.1,1,-78.9,281.1,1024,1024,364,1024,1024,,,,,
244,29.7,0m 29.7s,-26.91163094,-49.03378463,P-GPS,58.1,17.7,0.0,0.0,1.1,0.5,27.9,8.5,-26.91155751,-49.03376056,17,5,47,13.873,0.098,3.425,3.481,3.444,3.523,0,0,0,-0.1,1.1,-78.9,281.1,1024,1024,364,1024,1024,,,,,
245,29.8,0m 29.8s,-26.91163096,-49.0337846,P-GPS,58.1,17.7,0.0,0.0,0.0,0.0,27.9,8.5,-26.91155751,-49.03376056,17,5,47,13.873,0.098,3.425,3.481,3.444,3.523,0,0,0,-0.4,1.4,-79.1,280.9,1024,1024,364,1024,1024,,,,,
246,29.9,0m 29.9s,-26.91163108,-49.03378478,P-GPS,58.1,17.7,0.0,0.0,0.0,0.0,28.0,8.5,-26.91155751,-49.03376056,17,5,47,13.873,0.098,3.425,3.481,3.444,3.523,0,0,0,-0.5,1.7,-79.3,280.7,1024,1024,364,1024,1024,,,,,
247,30,0m 30s,-26.91163105,-49.0337848,P-GPS,58.1,17.7,0.0,0.0,0.0,0.0,28.0,8.5,-26.91155751,-49.03376056,17,5,47,13.873,0.098,3.425,3.481,3.444,3.523,0,0,0,-0.3,2,-79.4,280.6,1024,1024,1024,1024,1024,,,,,
248,30.1,0m 30.1s,-26.91163114,-49.03378489,P-GPS,58.1,17.7,0.0,0.0,0.0,0.0,28.0,8.5,-26.91155751,-49.03376056,17,5,47,13.873,0.098,3.425,3.481,3.444,3.523,0,0,0,-0.1,2,-79.5,280.5,1024,1024,1024,1024,1024,,,,,
249,30.2,0m 30.2s,-26.91163113,-49.03378487,P-GPS,58.1,17.7,0.0,0.0,0.0,0.0,28.0,8.5,-26.91155751,-49.03376056,17,5,47,13.873,0.098,3.425,3.481,3.444,3.523,0,0,0,-0.1,2,-79.5,280.5,1024,1024,1024,1024,1024,,,,,
250,30.3,0m 30.3s,-26.91163118,-49.03378485,P-GPS,58.1,17.7,0.0,0.0,0.0,0.0,28.0,8.5,-26.91155751,-49.03376056,17,5,47,13.873,0.098,3.425,3.481,3.444,3.523,0,0,0,-0.1,2,-79.6,280.4,1024,1024,1025,1024,1024,,,,,
251,30.4,0m 30.4s,-26.91163115,-49.03378482,P-GPS,58.1,17.7,0.0,0.0,1.1,0.5,28.0,8.5,-26.91155751,-49.03376056,17,5,47,13.873,0.098,3.425,3.481,3.444,3.523,0,0,0,-0.1,1.7,-79.7,280.3,1024,1024,1024,1024,1024,,,,,
252,30.5,0m 30.5s,-26.91163123,-49.0337848,P-GPS,58.1,17.7,0.0,0.0,0.0,0.0,28.0,8.5,-26.91155751,-49.03376056,17,5,47,13.873,0.098,3.425,3.481,3.444,3.523,0,0,0,-0.5,1.7,-79.9,280.1,1024,1024,1024,1024,1024,,,,,
253,30.6,0m 30.6s,-26.91163124,-49.03378477,P-GPS,58.1,17.7,0.0,0.0,0.0,0.0,28.0,8.5,-26.91155751,-49.03376056,17,5,47,13.873,0.098,3.425,3.481,3.444,3.523,0,0,0,-0.9,1.8,-80.2,279.8,1024,1024,1024,1024,1024,,,,,
254,30.7,0m 30.7s,-26.91163122,-49.03378479,P-GPS,58.1,17.7,0.0,0.0,0.0,0.0,28.0,8.5,-26.91155751,-49.03376056,17,5,47,13.873,0.098,3.425,3.481,3.444,3.523,0,0,0,-1.2,1.9,-80.5,279.5,1024,1024,1684,1024,1024,,,,,
255,30.8,0m 30.8s,-26.91163119,-49.03378482,P-GPS,58.4,17.8,0.0,0.0,0.0,0.0,28.0,8.5,-26.91155751,-49.03376056,17,5,47,13.873,0.098,3.425,3.481,3.444,3.523,0,0,0,-1.2,2,-80.8,279.2,1024,1024,1684,1024,1024,,,,,
256,30.9,0m 30.9s,-26.91163126,-49.03378487,P-GPS,58.4,17.8,0.0,0.0,1.1,0.5,28.0,8.5,-26.91155751,-49.03376056,17,5,47,13.873,0.098,3.425,3.481,3.444,3.523,0,0,0,-1.1,1.8,-80.9,279.1,1024,1024,1024,1024,1024,,,,,
257,31,0m 31s,-26.91163122,-49.03378493,P-GPS,58.4,17.8,0.0,0.0,0.0,0.0,28.0,8.5,-26.91155751,-49.03376056,17,5,47,13.873,0.098,3.425,3.481,3.444,3.523,0,0,0,-0.8,1.7,-80.9,279.1,1024,1024,1024,1024,1024,,,,,
258,31.2,0m 31.2s,-26.91163114,-49.03378514,P-GPS,58.4,17.8,0.2,0.1,0.0,0.0,28.0,8.5,-26.91155751,-49.03376056,17,5,47,13.873,0.098,3.425,3.481,3.444,3.523,0,-0.1,0,0,1.5,-80.8,279.2,1024,1024,1024,1024,1024,,,,,
259,31.3,0m 31.3s,-26.9116309,-49.0337853,P-GPS,58.4,17.8,0.2,0.1,0.0,0.0,28.0,8.5,-26.91155751,-49.03376056,17,5,47,13.875,0.112,3.421,3.477,3.444,3.533,0,-0.1,0,0.2,1.5,-80.7,279.3,1024,1024,1024,1024,1024,,,,,
260,31.4,0m 31.4s,-26.9116308,-49.03378543,P-GPS,58.4,17.8,0.3,0.1,1.1,0.5,27.9,8.5,-26.91155751,-49.03376056,17,5,47,13.875,0.112,3.421,3.477,3.444,3.533,0.1,-0.1,0,0.4,1.5,-80.6,279.4,1024,1024,1024,1024,1024,,,,,
261,31.5,0m 31.5s,-26.91163073,-49.03378556,P-GPS,58.4,17.8,0.3,0.1,0.0,0.0,27.9,8.5,-26.91155751,-49.03376056,17,5,47,13.875,0.112,3.421,3.477,3.444,3.533,0.1,-0.1,0,0.6,1.4,-80.5,279.5,1024,1024,1024,1024,1024,,,,,
262,31.6,0m 31.6s,-26.91163061,-49.03378568,P-GPS,58.4,17.8,0.3,0.1,1.1,0.5,27.9,8.5,-26.91155751,-49.03376056,17,5,47,13.875,0.112,3.421,3.477,3.444,3.533,0.1,-0.1,0,0.8,1,-80.3,279.7,1024,1024,1024,1024,1024,,,,,
263,31.7,0m 31.7s,-26.91163048,-49.03378587,P-GPS,58.4,17.8,0.3,0.1,0.0,0.0,27.9,8.5,-26.91155751,-49.03376056,17,5,47,13.875,0.112,3.421,3.477,3.444,3.533,0.1,-0.1,0,0.7,0.6,-80.3,279.7,1024,1024,1024,1024,1024,,,,,
264,31.8,0m 31.8s,-26.91163033,-49.03378598,P-GPS,58.4,17.8,0.3,0.1,1.1,0.5,27.8,8.5,-26.91155751,-49.03376056,17,5,47,13.875,0.112,3.421,3.477,3.444,3.533,0.1,-0.1,0,0.6,0.3,-80.2,279.8,1024,1024,1024,1024,1024,,,,,
265,31.9,0m 31.9s,-26.91163014,-49.03378616,P-GPS,58.4,17.8,0.3,0.1,0.0,0.0,27.8,8.5,-26.91155751,-49.03376056,17,5,47,13.875,0.112,3.421,3.477,3.444,3.533,0.1,-0.1,0,0.5,0,-80.2,279.8,1024,1024,1024,1024,1024,,,,,
266,32,0m 32s,-26.91163004,-49.03378631,P-GPS,58.4,17.8,0.3,0.1,0.0,0.0,27.8,8.5,-26.91155751,-49.03376056,17,5,47,13.875,0.112,3.421,3.477,3.444,3.533,0.1,-0.1,0,0.6,0,-80.2,279.8,1024,1024,1024,1024,1024,,,,,
267,32.1,0m 32.1s,-26.91162998,-49.03378652,P-GPS,58.4,17.8,0.2,0.1,1.1,0.5,27.8,8.5,-26.91155751,-49.03376056,17,5,47,13.875,0.112,3.421,3.477,3.444,3.533,0,-0.1,0,0.9,-0.1,-80.3,279.7,1024,1024,1024,1024,1024,,,,,
268,32.2,0m 32.2s,-26.9116299,-49.03378668,P-GPS,58.4,17.8,0.2,0.1,0.0,0.0,27.7,8.5,-26.91155751,-49.03376056,17,5,47,13.875,0.112,3.421,3.477,3.444,3.533,0,-0.1,0,1.5,-0.1,-80.3,279.7,1024,1024,1024,1024,1024,,,,,
269,32.3,0m 32.3s,-26.91162977,-49.03378684,P-GPS,58.4,17.8,0.2,0.1,0.0,0.0,27.7,8.4,-26.91155751,-49.03376056,17,5,47,13.84,0.12,3.406,3.466,3.442,3.526,0,-0.1,0,2,0,-80.2,279.8,1024,1024,1024,1024,1024,,,,,
270,32.4,0m 32.4s,-26.91162971,-49.03378699,P-GPS,58.4,17.8,0.2,0.1,1.1,0.5,27.7,8.4,-26.91155751,-49.03376056,17,5,47,13.84,0.12,3.406,3.466,3.442,3.526,0,-0.1,0,2.4,0,-80.1,279.9,1024,1024,1024,1024,1024,,,,,
271,32.5,0m 32.5s,-26.91162953,-49.03378714,P-GPS,58.4,17.8,0.2,0.1,0.0,0.0,27.7,8.4,-26.91155751,-49.03376056,17,5,47,13.84,0.12,3.406,3.466,3.442,3.526,0,-0.1,0,2.6,0,-80,280,1024,1024,1024,1024,1024,,,,,
272,32.6,0m 32.6s,-26.91162949,-49.03378726,P-GPS,58.4,17.8,0.2,0.1,0.0,0.0,27.7,8.4,-26.91155751,-49.03376056,17,5,47,13.84,0.12,3.406,3.466,3.442,3.526,0,-0.1,0,2.9,-0.1,-79.6,280.4,1024,1024,1024,1024,1024,,,,,
273,32.7,0m 32.7s,-26.91162956,-49.03378732,P-GPS,58.4,17.8,0.0,0.0,0.0,0.0,27.7,8.4,-26.91155751,-49.03376056,17,5,47,13.84,0.12,3.406,3.466,3.442,3.526,0,0,0,3,-0.3,-79.4,280.6,1024,1024,1024,1024,1024,,,,,
274,32.8,0m 32.8s,-26.91162949,-49.03378739,P-GPS,58.4,17.8,0.0,0.0,1.1,0.5,27.7,8.4,-26.91155751,-49.03376056,17,5,47,13.84,0.12,3.406,3.466,3.442,3.526,0,0,0,2.8,-0.2,-79.2,280.8,1024,1024,1024,1024,1024,,,,,
275,32.9,0m 32.9s,-26.91162955,-49.03378733,P-GPS,58.4,17.8,0.0,0.0,0.0,0.0,27.7,8.4,-26.91155751,-49.03376056,17,5,47,13.84,0.12,3.406,3.466,3.442,3.526,0,0,0,2.5,0,-78.9,281.1,1024,1024,1024,1024,1024,,,,,
276,33,0m 33s,-26.91162962,-49.03378727,P-GPS,58.4,17.8,0.0,0.0,0.0,0.0,27.7,8.4,-26.91155751,-49.03376056,17,5,47,13.84,0.12,3.406,3.466,3.442,3.526,0,0,0,2.2,0.3,-78.9,281.1,1024,1024,1024,1024,1024,,,,,
277,33.1,0m 33.1s,-26.91162961,-49.0337872,P-GPS,58.4,17.8,0.0,0.0,0.0,0.0,27.7,8.4,-26.91155751,-49.03376056,17,5,47,13.84,0.12,3.406,3.466,3.442,3.526,0,0,0,2,0.4,-78.9,281.1,1024,1024,1024,1024,1024,,,,,
278,33.2,0m 33.2s,-26.91162967,-49.0337871,P-GPS,58.4,17.8,0.0,0.0,0.0,0.0,27.7,8.4,-26.91155751,-49.03376056,17,5,47,13.84,0.12,3.406,3.466,3.442,3.526,0,0,0,1.7,0.7,-79,281,1024,1024,1024,1024,1024,,,,,
279,33.3,0m 33.3s,-26.91162982,-49.03378701,P-GPS,58.4,17.8,0.2,0.1,1.1,0.5,27.7,8.5,-26.91155751,-49.03376056,17,5,47,13.831,0.118,3.403,3.463,3.444,3.521,0,0.1,0,1.2,0.9,-79.1,280.9,1024,1024,1024,1022,1024,,,,,
280,33.4,0m 33.4s,-26.91162979,-49.03378699,P-GPS,58.4,17.8,0.2,0.1,0.0,0.0,27.7,8.5,-26.91155751,-49.03376056,17,5,47,13.831,0.118,3.403,3.463,3.444,3.521,0,0.1,0,0.7,1,-79.1,280.9,1024,1024,1024,1009,1024,,,,,
281,33.5,0m 33.5s,-26.91162983,-49.03378673,P-GPS,58.7,17.9,0.2,0.1,0.0,0.0,27.7,8.4,-26.91155751,-49.03376056,17,5,47,13.831,0.118,3.403,3.463,3.444,3.521,0,0.1,0,0.3,1,-79.1,280.9,1024,1024,1024,974,1024,,,,,
